city_he,city_en,zone,region_group,lat,lng
באר אורה,Be'er Ora,Aravah,Arava,29.70837,34.98564
עין חצבה,Ein Hatzeva,Aravah,Arava,30.7982,35.24575
עין יהב,Ein Yahav,Aravah,Arava,30.65432,35.23358
"אל עמארני, אל מסק","El Amrani, El Masaq",Aravah,Arava,30.79827,35.23446
אליפז ומכרות תמנע,Elipaz And Timna Mines,Aravah,Arava,29.77744,34.99384
גרופית,Grofit,Aravah,Arava,29.93929,35.06608
חצבה,Hatzeva,Aravah,Arava,30.76994,35.27693
עידן,Idan,Aravah,Arava,30.80378,35.29994
קטורה,Ktura,Aravah,Arava,29.9698,35.06091
לוטן,Lotan,Aravah,Arava,29.98677,35.08796
נאות סמדר,Neot Smadar,Aravah,Arava,30.04995,35.02659
נווה חריף,Neveh Harif,Aravah,Arava,30.03788,35.03626
פארן,Paran,Aravah,Arava,30.36931,35.15167
סמר,Samar,Aravah,Arava,29.83265,35.02287
ספיר,Sapir,Aravah,Arava,30.60714,35.18636
שחרות,Shachrut,Aravah,Arava,29.90486,35.00068
שיטים,Shitim,Aravah,Arava,30.17706,35.01598
צופר,Tzofar,Aravah,Arava,30.56042,35.17836
צוקים,Tzukim,Aravah,Arava,30.48836,35.16809
יהל,Yahel,Aravah,Arava,30.08128,35.12795
יטבתה,Yotvata,Aravah,Arava,29.89582,35.06217
אלמוג,Almog,Dead Sea,Arava,31.78846,35.46099
אבנת,Avnat,Dead Sea,Arava,31.67752,35.43718
בית הערבה,Beit HaArava,Dead Sea,Arava,31.80837,35.47771
בתי מלון ים המלח,Dead Sea Hotels,Dead Sea,Arava,31.16856,35.36734
מלונות ים המלח מרכז,Dead Sea Hotels - Center,Dead Sea,Arava,31.18061,35.36507
עין בוקק,Ein Bokek,Dead Sea,Arava,31.19914,35.3636
עין גדי,Ein Gedi,Dead Sea,Arava,31.45907,35.39479
מרחצאות עין גדי,Ein Gedi Baths,Dead Sea,Arava,31.41705,35.37909
עין תמר,Ein Tamar,Dead Sea,Arava,30.9439,35.36783
חוות מנחם,Havat Menachem,Dead Sea,Arava,31.36427,35.16875
קליה,Kalia,Dead Sea,Arava,31.74805,35.46777
חוף קליה,Kalia Beach,Dead Sea,Arava,31.76086,35.49962
מצדה,Massada,Dead Sea,Arava,31.31176,35.36357
מרכז אזורי מגילות,Megilot Regional Center,Dead Sea,Arava,31.77385,35.50385
מצוקי דרגות,Metzokei Dragot,Dead Sea,Arava,31.59101,35.39222
מצפה מדרג,Mitzpe Midrag,Dead Sea,Arava,31.44281,35.24754
מצפה שלם,Mitzpeh Shalem,Dead Sea,Arava,31.56687,35.40182
נאות הכיכר,Neot HaKikar,Dead Sea,Arava,30.93471,35.38205
נווה זוהר,Neveh Zohar,Dead Sea,Arava,31.15414,35.36515
ורד יריחו,Vered Yericho,Dead Sea,Arava,31.82587,35.43407
אל סייד,AlSayid,Center Negev,Beer Sheva / Negev,31.28786,34.90352
באר שבע - מזרח,Beer Sheva - East,Center Negev,Beer Sheva / Negev,31.23453,34.82015
באר שבע - צפון,Beer Sheva - North,Center Negev,Beer Sheva / Negev,31.27246,34.81385
באר שבע - דרום,Beer Sheva - South,Center Negev,Beer Sheva / Negev,31.24145,34.77619
באר שבע - מערב,Beer Sheva - West,Center Negev,Beer Sheva / Negev,31.26997,34.77403
בית קמה,Beit Kama,Center Negev,Beer Sheva / Negev,31.4428,34.76122
כרמית,Carmit,Center Negev,Beer Sheva / Negev,31.33122,34.89609
אתר דודאים,Duda'im Site,Center Negev,Beer Sheva / Negev,31.31228,34.734
דביר,Dvir,Center Negev,Beer Sheva / Negev,31.4121,34.82457
אשכולות,Eshkolot,Center Negev,Beer Sheva / Negev,31.39189,34.90076
גבעות בר,Giv'ot Bar,Center Negev,Beer Sheva / Negev,31.35621,34.75828
חצרים,Hatzerim,Center Negev,Beer Sheva / Negev,31.23938,34.71383
חורה,Hura,Center Negev,Beer Sheva / Negev,31.29661,34.93344
אזור תעשייה עידן הנגב,Idan HaNegev Industrial Zone,Center Negev,Beer Sheva / Negev,31.37745,34.78681
כרמים,Kramim,Center Negev,Beer Sheva / Negev,31.3319,34.91738
להב,Lahav,Center Negev,Beer Sheva / Negev,31.37721,34.86808
לקיה,Laqiya,Center Negev,Beer Sheva / Negev,31.31824,34.84017
להבים,Lehavim,Center Negev,Beer Sheva / Negev,31.36771,34.81165
מיתר,Meitar,Center Negev,Beer Sheva / Negev,31.32808,34.93868
משמר הנגב,Mishmar HaNegev,Center Negev,Beer Sheva / Negev,31.36411,34.7176
נבטים,Nevatim,Center Negev,Beer Sheva / Negev,31.22421,34.88013
עומר,Omer,Center Negev,Beer Sheva / Negev,31.26849,34.8469
רהט,Rahat,Center Negev,Beer Sheva / Negev,31.40274,34.75793
סנסנה,Sansana,Center Negev,Beer Sheva / Negev,31.3641,34.90123
שגב שלום,Segev Shalom,Center Negev,Beer Sheva / Negev,31.20074,34.82546
שובל,Shoval,Center Negev,Beer Sheva / Negev,31.4124,34.73865
תל שבע,Tel Sheva,Center Negev,Beer Sheva / Negev,31.24119,34.86391
תארבין,Tirabin,Center Negev,Beer Sheva / Negev,31.35746,34.7385
אום בטין,Umm Batin,Center Negev,Beer Sheva / Negev,31.2694,34.87887
אזור תעשייה דימונה,Dimona Industrial Zone,South Negev,Beer Sheva / Negev,31.05943,35.01285
אבו קרינאת,Abu Qrenat,Southern Negev,Beer Sheva / Negev,31.1253,34.96838
אבו תלול,Abu Talul,Southern Negev,Beer Sheva / Negev,31.19078,34.91612
ערערה בנגב,Ar'ara BaNegev,Southern Negev,Beer Sheva / Negev,31.15195,35.01948
ערד,Arad,Southern Negev,Beer Sheva / Negev,31.2569,35.2126
אשלים,Ashalim,Southern Negev,Beer Sheva / Negev,30.97155,34.71544
עזוז,Azuz,Southern Negev,Beer Sheva / Negev,30.79613,34.46638
באר מילכה,Be'er Milka,Southern Negev,Beer Sheva / Negev,30.93289,34.40734
מדרשת בן גוריון,Ben Gurion College,Southern Negev,Beer Sheva / Negev,30.85394,34.78121
ביר הדאג',Bir Hadaj,Southern Negev,Beer Sheva / Negev,31.03024,34.71692
דימונה,Dimona,Southern Negev,Beer Sheva / Negev,31.0692,35.0378
אל פורעה,El For'eh,Southern Negev,Beer Sheva / Negev,31.22164,35.16423
חירן,Hiran,Southern Negev,Beer Sheva / Negev,31.34704,35.06026
קדש ברנע,Kadesh Barneah,Southern Negev,Beer Sheva / Negev,30.90348,34.3988
כפר הנוקדים,Kfar HaNokdim,Southern Negev,Beer Sheva / Negev,31.30488,35.26962
כמהין,Kmehin,Southern Negev,Beer Sheva / Negev,30.91026,34.43165
כסייפה,Kuseife,Southern Negev,Beer Sheva / Negev,31.23477,35.06824
מרעית,Mar'it,Southern Negev,Beer Sheva / Negev,31.28127,35.05344
משאבי שדה,Mashabei Sadeh,Southern Negev,Beer Sheva / Negev,31.00883,34.77757
מרחב עם,Merhav Am,Southern Negev,Beer Sheva / Negev,30.88896,34.82807
מצפה רמון,Mitzpeh Ramon,Southern Negev,Beer Sheva / Negev,30.61539,34.7977
ניצנה,Nitzana,Southern Negev,Beer Sheva / Negev,30.8852,34.42217
קסר א-סר,Qasr Al-Sir,Southern Negev,Beer Sheva / Negev,31.08647,34.99792
רתמים,Retamim,Southern Negev,Beer Sheva / Negev,31.0535,34.68955
רביבים,Revivim,Southern Negev,Beer Sheva / Negev,31.04251,34.71986
אזור תעשייה רותם,Rotem Industrial Zone,Southern Negev,Beer Sheva / Negev,31.0601,35.19502
סעווה,Sa'wa,Southern Negev,Beer Sheva / Negev,31.25103,34.95284
שדה בוקר,Sdeh Boker,Southern Negev,Beer Sheva / Negev,30.87027,34.79149
שאנטי במדבר,Shanti BaMidbar,Southern Negev,Beer Sheva / Negev,30.82983,34.75052
תל ערד,Tel Arad,Southern Negev,Beer Sheva / Negev,31.2837,35.1038
טללים,Tlalim,Southern Negev,Beer Sheva / Negev,30.99049,34.77148
ואדי אל נעם דרום,Wadi El Na'am South,Southern Negev,Beer Sheva / Negev,31.13499,34.82485
ירוחם,Yeruham,Southern Negev,Beer Sheva / Negev,30.99539,34.92384
אילת,Eilat,Eilat,Eilat,29.53716,34.93683
אילות,Eilot,Eilat,Eilat,29.58068,34.96375
אזור תעשייה שחורת,Shchoret Industrial Zone,Eilat,Eilat,29.59891,34.97192
בית אלפא וחפציבה,Beit Alfa And Heftziba,Beit She'an Valley,Galilee,32.51226,35.43704
בית השיטה,Beit HaShita,Beit She'an Valley,Galilee,32.55017,35.4384
בית שאן,Beit She'an,Beit She'an Valley,Galilee,32.49944,35.50057
בית יוסף,Beit Yossef,Beit She'an Valley,Galilee,32.55964,35.55354
עין הנצי'ב,Ein HaNatziv,Beit She'an Valley,Galilee,32.47007,35.50149
גני חוגה,Ganey Hugga,Beit She'an Valley,Galilee,32.51739,35.53924
גשר,Gesher,Beit She'an Valley,Galilee,32.62,35.55206
חמדיה,Hamadia,Beit She'an Valley,Galilee,32.52061,35.5207
חוות עדן,Havat Eden,Beit She'an Valley,Galilee,31.70001,35.141
כפר רופין,Kfar Ruppin,Beit She'an Valley,Galilee,32.45802,35.55665
מעלה גלבוע,Ma'aleh Gilboa,Beit She'an Valley,Galilee,32.47449,35.42227
מעוז חיים,Maoz Haim,Beit She'an Valley,Galilee,32.49258,35.55132
מנחמיה,Menahemia,Beit She'an Valley,Galilee,32.66799,35.556
מירב,Merav,Beit She'an Valley,Galilee,32.45259,35.42169
מסילות,Messilot,Beit She'an Valley,Galilee,32.49483,35.47448
כפר גמילה מלכישוע,Mlkishua Rehabilitation Village,Beit She'an Valley,Galilee,32.43754,35.41585
מולדת,Moledet,Beit She'an Valley,Galilee,32.58587,35.4415
נוה איתן,Neve Eitan,Beit She'an Valley,Galilee,32.49124,35.53234
נווה אור,Neveh Or,Beit She'an Valley,Galilee,32.58821,35.55359
ניר דוד,Nir David,Beit She'an Valley,Galilee,32.50446,35.45595
רחוב,Rechov,Beit She'an Valley,Galilee,32.45011,35.48918
"רשפים, שלוחות, שלפים","Reshafim, Shluchot, Shlafim",Beit She'an Valley,Galilee,32.47723,35.47636
רוויה,Revaya,Beit She'an Valley,Galilee,32.44749,35.47126
שדה אליהו,Sdeh Eliyahu,Beit She'an Valley,Galilee,32.44082,35.5143
שדה נחום,Sdeh Nachum,Beit She'an Valley,Galilee,32.52637,35.48174
שדי תרומות,Sdei Trumot,Beit She'an Valley,Galilee,32.43896,35.48564
טייבה בגלבוע,Taibe (Gilboa),Beit She'an Valley,Galilee,32.60309,35.44406
תל תאומים,Tel Teomim,Beit She'an Valley,Galilee,32.44183,35.49622
טירת צבי,Tirat Zvi,Beit She'an Valley,Galilee,32.4221,35.52738
ירדנה,Yardena,Beit She'an Valley,Galilee,32.56613,35.56396
צומת אלמוג,Almog Junction,Bika'a,Galilee,31.80121,35.45184
החווה של עשהאל,Asa'el's Farm,Bika'a,Galilee,32.30588,35.49184
בתרונות,Bitronot,Bika'a,Galilee,32.31964,35.54198
עינות קדם,Einot Kedem,Bika'a,Galilee,31.9303,35.42898
אש קודש,Esh Kodesh,Bika'a,Galilee,32.06633,35.33639
חוות עמיאל,Havat Amiel,Bika'a,Galilee,32.39125,35.46468
חוות גנות,Havat Ganot,Bika'a,Galilee,32.15814,35.43967
חוות פריאל,Havat Priel,Bika'a,Galilee,32.07907,35.41626
חוות יד השומר,Havat Yad HaShomer,Bika'a,Galilee,32.33229,35.49012
קדם ערבה,Kedem Arava,Bika'a,Galilee,31.80529,35.49959
החווה של מנחם,Menachem's Farm,Bika'a,Galilee,32.22326,35.54088
מצפור פצאל,Mitzpor Fatsa'el,Bika'a,Galilee,32.05593,35.41971
חוות הרשאש,Rashash Farm,Bika'a,Galilee,32.0422,35.40313
שלומציון,Shlomtsiyon,Bika'a,Galilee,32.09822,35.49284
החווה של אורי כהן,Uri Cohen's Farm,Bika'a,Galilee,32.28898,35.51922
החווה של יאיא,Yaya's Farm,Bika'a,Galilee,32.14229,35.41122
ערב אל נעים,Arab Al Naim,Center Galilee,Galilee,32.88752,35.29099
עראבה,Arraba,Center Galilee,Galilee,32.85342,35.33703
עצמון - שגב,Atzmon (Segev),Center Galilee,Galilee,32.86557,35.25145
אבטליון,Avtalion,Center Galilee,Galilee,32.83684,35.35085
בית רימון,Beit Rimon,Center Galilee,Galilee,32.78127,35.32707
ביר אלמכסור,Bir Al-Maksur,Center Galilee,Galilee,32.78516,35.22438
בועיינה-נוג'ידאת,Bu'eine Nujeidat,Center Galilee,Galilee,32.80808,35.36656
דיר חנא,Deir Hanna,Center Galilee,Galilee,32.86283,35.36609
דמיידה,Dmeide,Center Galilee,Galilee,32.81489,35.2279
עילבון,Eilabun,Center Galilee,Galilee,32.83659,35.40118
אשבל,Eshbal,Center Galilee,Galilee,32.87649,35.30466
אשחר,Eshchar,Center Galilee,Galilee,32.8863,35.29929
חנתון,Hanaton,Center Galilee,Galilee,32.7839,35.24454
הררית יחד,Hararit Yachad,Center Galilee,Galilee,32.84658,35.36888
חזון,Hazon,Center Galilee,Galilee,32.90535,35.39614
חוסנייה,Hussniyya,Center Galilee,Galilee,32.90087,35.3191
אעבלין,Ibillin,Center Galilee,Galilee,32.82234,35.18956
כאבול,Kabul,Center Galilee,Galilee,32.87549,35.20292
כלנית,Kalanit,Center Galilee,Galilee,32.87436,35.45768
כאוכב אבו אלהיג'א,Kaukab Abu Al-Hija,Center Galilee,Galilee,32.83088,35.24869
כפר חנניה,Kfar Hanania,Center Galilee,Galilee,32.91455,35.42527
כפר מנדא,Kfar Manda,Center Galilee,Galilee,32.80759,35.2651
קורנית,Koranit,Center Galilee,Galilee,32.84316,35.25302
לוטם וחמדון,Lotem And Hamdon,Center Galilee,Galilee,32.88235,35.35818
מעלה צביה,Ma'aleh Zvia,Center Galilee,Galilee,32.88967,35.33135
מע'אר,Maghar,Center Galilee,Galilee,32.88574,35.41291
מנוף,Manof,Center Galilee,Galilee,32.85279,35.23793
מסד,Massad,Center Galilee,Galilee,32.84351,35.42435
מרכז אזורי משגב,Misgav Regional Center,Center Galilee,Galilee,32.85893,35.25948
מצפה אבי'ב,Mitzpeh Aviv,Center Galilee,Galilee,32.83505,35.20436
מצפה נטופה,Mitzpeh Netofa,Center Galilee,Galilee,32.80242,35.38684
מורן,Moran,Center Galilee,Galilee,32.92066,35.3931
מורשת,Moreshet,Center Galilee,Galilee,32.82666,35.23214
רקפת,Rakefet,Center Galilee,Galilee,32.85642,35.26432
ראס אל-עין,Ras Al-ein,Center Galilee,Galilee,32.91442,35.37151
רומת אל הייב,Rumat Al-Heib,Center Galilee,Galilee,32.77891,35.30415
סכנין,Sakhnin,Center Galilee,Galilee,32.86542,35.30059
סלמה,Salama,Center Galilee,Galilee,32.892,35.36922
שעב,Sha'ab,Center Galilee,Galilee,32.88889,35.23557
שכניה,Shekhanya,Center Galilee,Galilee,32.84884,35.24692
שפרעם,Shfaram,Center Galilee,Galilee,32.80803,35.17044
שורשים,Shorashim,Center Galilee,Galilee,32.89373,35.26026
טמרה,Tamra,Center Galilee,Galilee,32.84704,35.20469
טפחות,Tefahot,Center Galilee,Galilee,32.86753,35.42368
טורעאן,Turan,Center Galilee,Galilee,32.77662,35.37658
"עוזייר, רומאנה","Uzeir, Romana",Center Galilee,Galilee,32.7892,35.31765
יעד,Ya'ad,Center Galilee,Galilee,32.8789,35.24228
יודפת,Yodfat,Center Galilee,Galilee,32.83663,35.27274
יובלים,Yuvalim,Center Galilee,Galilee,32.87773,35.26991
בית סוהר צלמון,Zalmon Prison,Center Galilee,Galilee,32.87171,35.4476
עדי,Adi,HaAmakim,Galilee,32.78274,35.17238
עפולה,Afula,HaAmakim,Galilee,32.61542,35.29702
אחוזת ברק,Ahuzat Barak,HaAmakim,Galilee,32.64324,35.33818
אלון הגליל,Alon HaGalil,HaAmakim,Galilee,32.75974,35.21967
אזור תעשייה אלון התבור,Alon HaTavor Industrial Zone,HaAmakim,Galilee,32.63534,35.36067
אלוני אבא,Alonei Abba,HaAmakim,Galilee,32.72972,35.17071
אלונים,Alonim,HaAmakim,Galilee,32.71629,35.14834
בלפוריה,Balfuria,HaAmakim,Galilee,32.62972,35.29693
בסמת טבעון,Basmat Tab'un,HaAmakim,Galilee,32.74536,35.1492
בית קשת,Beit Keshet,HaAmakim,Galilee,32.71802,35.3955
בית שערים,Beit Shea'rim,HaAmakim,Galilee,32.69461,35.17708
בית לחם הגלילית,Bethlehem of Galilee,HaAmakim,Galilee,32.73438,35.19026
דבוריה,Daburiyya,HaAmakim,Galilee,32.68757,35.37295
דברת,Dovrat,HaAmakim,Galilee,32.64677,35.34982
דחי,Ed-Dahi,HaAmakim,Galilee,32.6211,35.34503
עין דור,Ein Dor,HaAmakim,Galilee,32.65699,35.418
"עין חרוד, תל יוסף","Ein Harod, Tel Yosef",HaAmakim,Galilee,32.55857,35.39419
עין מאהל,Ein Mahil,HaAmakim,Galilee,32.72191,35.35251
גן נר,Gan Ner,HaAmakim,Galilee,32.53107,35.33383
גזית,Gazit,HaAmakim,Galilee,32.63806,35.44694
גניגר,Genigar,HaAmakim,Galilee,32.6638,35.25947
גדעונה,Gidona,HaAmakim,Galilee,32.54932,35.35859
מתחם סקי גלבוע,Gilboa Ski Resort,HaAmakim,Galilee,32.55289,35.33522
גבעת אלה,Givat Ela,HaAmakim,Galilee,32.72099,35.24556
גבת,Gvat,HaAmakim,Galilee,32.67413,35.2128
הסוללים,HaSollelim,HaAmakim,Galilee,32.75084,35.23877
היוגב,HaYogev,HaAmakim,Galilee,32.61055,35.20662
חג'אג'רה,Hajajre,HaAmakim,Galilee,32.74087,35.20483
הרדוף,Harduf,HaAmakim,Galilee,32.76238,35.17451
הושעיה,Hoshaya,HaAmakim,Galilee,32.75833,35.29205
יפעת,Ifat,HaAmakim,Galilee,32.67764,35.2232
אכסאל,Iksal,HaAmakim,Galilee,32.67828,35.31978
אילניה,Ilania,HaAmakim,Galilee,32.75618,35.40773
עילוט,Ilut,HaAmakim,Galilee,32.71902,35.26149
כעביה טבאש,Ka'abiyye Tabbash,HaAmakim,Galilee,32.75438,35.18745
כדורי,Kadoorie,HaAmakim,Galilee,32.70327,35.40818
כפר מצר,Kafr Misr,HaAmakim,Galilee,32.64537,35.42235
כפר ברוך,Kfar Baruch,HaAmakim,Galilee,32.64576,35.19046
תחנת רכבת כפר ברוך,Kfar Baruch Train Station,HaAmakim,Galilee,32.6477,35.20867
כפר גדעון,Kfar Gidon,HaAmakim,Galilee,32.64341,35.29166
כפר החורש,Kfar HaHoresh,HaAmakim,Galilee,32.70166,35.27033
כפר כנא,Kfar Kana,HaAmakim,Galilee,32.74799,35.34273
כפר קיש,Kfar Kish,HaAmakim,Galilee,32.66506,35.44916
כפר תבור,Kfar Tavor,HaAmakim,Galilee,32.68879,35.42329
כפר תקווה,Kfar Tikva,HaAmakim,Galilee,32.70135,35.11599
כפר יחזקאל,Kfar Yechezkel,HaAmakim,Galilee,32.56794,35.35867
כפר יהושע,Kfar Yehoshua,HaAmakim,Galilee,32.68195,35.15332
כפר ח'וואלד,Khawaled Village,HaAmakim,Galilee,32.77009,35.13634
קריית טבעון - בית זייד,Kiryat Tivon - Beit Zaid,HaAmakim,Galilee,32.71324,35.12263
קבוצת גבע,Kvutzat Geva,HaAmakim,Galilee,32.56576,35.37284
מגן שאול,Magen Shaul,HaAmakim,Galilee,32.5202,35.30667
מנשית זבדה,Manshiya Zabda,HaAmakim,Galilee,32.70908,35.19454
משהד,Mashhad,HaAmakim,Galilee,32.74021,35.32121
מרחביה קיבוץ,Merhavia Kibbutz,HaAmakim,Galilee,32.60504,35.3072
מרחביה מושב,Merhavia Moshav,HaAmakim,Galilee,32.60485,35.31541
מרכז חבר,Merkaz Hever,HaAmakim,Galilee,32.54737,35.26681
אזור תעשייה מבואות הגלבוע,Mevuot HaGilboa Industrial Zone,HaAmakim,Galilee,32.56808,35.26696
מגדל העמק,Migdal HaEmek,HaAmakim,Galilee,32.67325,35.24396
מזרע,Mizra,HaAmakim,Galilee,32.65205,35.28748
מוקיבלה,Muqeible,HaAmakim,Galilee,32.51515,35.29484
נאעורה,Na'ura,HaAmakim,Galilee,32.60795,35.39029
נהלל,Nahalal,HaAmakim,Galilee,32.68905,35.19373
נצרת,Nazareth,HaAmakim,Galilee,32.69925,35.29565
נין,Nin,HaAmakim,Galilee,32.63311,35.35057
נוף הגליל,Nof HaGalil,HaAmakim,Galilee,32.7101,35.32282
נופית,Nofit,HaAmakim,Galilee,32.75974,35.1467
נורית,Nurit,HaAmakim,Galilee,32.53932,35.3574
ישובי אומן,Omen Settlements,HaAmakim,Galilee,32.56551,35.24374
אורנים,Oranim,HaAmakim,Galilee,32.7127,35.10832
רם און,Ram On,HaAmakim,Galilee,32.52679,35.2594
רמת דוד,Ramat David,HaAmakim,Galilee,32.67841,35.20266
רמת ישי,Ramat Ishai,HaAmakim,Galilee,32.70304,35.16505
רמת צבי,Ramat Zvi,HaAmakim,Galilee,32.59073,35.41456
ראס עלי,Ras Ali,HaAmakim,Galilee,32.77135,35.15456
ריינה,Reineh,HaAmakim,Galilee,32.72331,35.30576
סנדלה,Sandala,HaAmakim,Galilee,32.52143,35.32305
שריד,Sarid,HaAmakim,Galilee,32.66233,35.22661
סואעד חמירה,Sawad Humeria,HaAmakim,Galilee,32.76725,35.16765
שדה יעקב,Sdeh Yacov,HaAmakim,Galilee,32.69687,35.14225
שער העמקים,Sha'ar HaAmakim,HaAmakim,Galilee,32.72288,35.11311
שדמות דבורה,Shadmot Dvora,HaAmakim,Galilee,32.69664,35.43702
שיבלי אום אלג'נם,Shibli-Umm Al-Ghanam,HaAmakim,Galilee,32.68608,35.39995
שמשית,Shimshit,HaAmakim,Galilee,32.73278,35.24595
סולם,Sulam,HaAmakim,Galilee,32.60661,35.33603
טמרה בגלבוע,Tamra (Gilboa),HaAmakim,Galilee,32.63134,35.40188
תל עדשים,Tel Adashim,HaAmakim,Galilee,32.65362,35.29963
תמרת,Timrat,HaAmakim,Galilee,32.70367,35.23022
אזור תעשייה ציפורית,Tziporit Industrial Zone,HaAmakim,Galilee,32.75891,35.31658
ציפורי,Tzippori,HaAmakim,Galilee,32.7472,35.27886
ישובי יעל,Yael Settlements,HaAmakim,Galilee,32.54987,35.30746
יפיע,Yafia,HaAmakim,Galilee,32.68404,35.27295
יזרעאל,Yizre'el,HaAmakim,Galilee,32.56302,35.32102
זרזיר,Zarzir,HaAmakim,Galilee,32.72267,35.21925
אפיקים,Afikim,Lower Galilee,Galilee,32.6799,35.57647
אלומות,Alumot,Lower Galilee,Galilee,32.70849,35.54533
ארבל,Arbel,Lower Galilee,Galilee,32.81316,35.48265
אזור תעשייה בר-לב,Bar Lev Industrial Zone,Lower Galilee,Galilee,32.90567,35.19401
בית ירח,Beit Yerah,Lower Galilee,Galilee,32.71434,35.57435
בית זרע,Beit Zera,Lower Galilee,Galilee,32.68783,35.5739
דגניה א,Degania Alef,Lower Galilee,Galilee,32.70794,35.5746
דגניה ב,Degania Bet,Lower Galilee,Galilee,32.69954,35.57541
גינוסר,Ginosar,Lower Galilee,Galilee,32.8472,35.52331
גבעת אבני,Giv'at Avni,Lower Galilee,Galilee,32.77449,35.43795
אתר ההנצחה גולני,Golani Memorial Site,Lower Galilee,Galilee,32.77665,35.4097
הזורעים,HaZor'im,Lower Galilee,Galilee,32.74506,35.50394
הודיות,Hodayot,Lower Galilee,Galilee,32.78818,35.43537
חוקוק,Hukok,Lower Galilee,Galilee,32.88063,35.49529
כפר חיטים,Kfar Hittim,Lower Galilee,Galilee,32.8004,35.50335
כפר כמא,Kfar Kama,Lower Galilee,Galilee,32.71999,35.44193
כפר נהר הירדן,Kfar Nehar HaYarden,Lower Galilee,Galilee,32.76651,35.43494
כפר זיתים,Kfar Zeitim,Lower Galilee,Galilee,32.81246,35.46263
אזור תעשייה קדמת גליל,Kidmat Galil Industrial Zone,Lower Galilee,Galilee,32.78484,35.4643
כינרת קבוצה,Kvutzat Kinneret,Lower Galilee,Galilee,32.71281,35.56173
לביא,Lavi,Lower Galilee,Galilee,32.79039,35.44182
לבנים,Livnim,Lower Galilee,Galilee,32.86361,35.49336
מגדל,Migdal,Lower Galilee,Galilee,32.83513,35.4986
מצפה,Mitzpeh,Lower Galilee,Galilee,32.79049,35.50927
כינרת מושבה,Moshavat Kinneret,Lower Galilee,Galilee,32.7228,35.56384
נבי שועייב,Nabi Shu'ayb,Lower Galilee,Galilee,32.8058,35.45147
פוריה כפר עבודה,Poria - Kfar Avoda,Lower Galilee,Galilee,32.72029,35.5486
פוריה נווה עובד,Poria - Neve Oved,Lower Galilee,Galilee,32.74538,35.53661
פוריה עילית,Poria Illit,Lower Galilee,Galilee,32.72983,35.54707
רביד,Ravid,Lower Galilee,Galilee,32.85029,35.46322
שדה אילן,Sdeh Ilan,Lower Galilee,Galilee,32.74866,35.42609
שרונה,Sharona,Lower Galilee,Galilee,32.72498,35.46858
אזור תעשייה תרדיון,Teradion Industrial Zone,Lower Galilee,Galilee,32.86738,35.27327
טבריה,Tiberias,Lower Galilee,Galilee,32.78416,35.52044
ואדי אל חמאם,Wadi Hamam,Lower Galilee,Galilee,32.82966,35.48983
יבנאל,Yavne'el,Lower Galilee,Galilee,32.70881,35.50113
אבו סנאן,Abu Snan,Upper Galilee,Galilee,32.96225,35.16781
עכו - אזור תעשייה,Acco - Industrial Zone,Upper Galilee,Galilee,32.89886,35.08908
אחיהוד,Achihud,Upper Galilee,Galilee,32.90618,35.17578
עכו,Acre,Upper Galilee,Galilee,32.93073,35.08349
עכו - רמות ים,Acre - Ramot Yam,Upper Galilee,Galilee,32.92757,35.10441
אפק,Afek,Upper Galilee,Galilee,32.83893,35.12596
בית העלמין החדש עכו,Akko New Cemetery,Upper Galilee,Galilee,32.91468,35.13587
עמיעד,Amiad,Upper Galilee,Galilee,32.92819,35.54084
אמירים,Amirim,Upper Galilee,Galilee,32.93829,35.45108
עמקה,Amka,Upper Galilee,Galilee,32.97963,35.16146
אמנון,Amnon,Upper Galilee,Galilee,32.90455,35.57218
עמוקה,Amuka,Upper Galilee,Galilee,32.99823,35.52475
איילת השחר,Ayelet HaShachar,Upper Galilee,Galilee,33.02307,35.58005
בר יוחאי,Bar Yochai,Upper Galilee,Galilee,32.99777,35.44828
בית העמק,Beit HaEmek,Upper Galilee,Galilee,32.97023,35.14471
בית ג'אן,Beit Jann,Upper Galilee,Galilee,32.96547,35.37137
בענה,Bi'ina,Upper Galilee,Galilee,32.92792,35.2732
ביריה,Biriyeh,Upper Galilee,Galilee,32.98154,35.49982
בוסתן הגליל,Bustan HaGalil,Upper Galilee,Galilee,32.951,35.08195
אזור תעשייה כרמיאל,Carmiel Industrial Zone,Upper Galilee,Galilee,32.92386,35.3247
דיר אל-אסד,Deir Al-Asad,Upper Galilee,Galilee,32.93912,35.25979
עין אל אסד,Ein Al-Asad,Upper Galilee,Galilee,32.93918,35.40028
עין המפרץ,Ein HaMifratz,Upper Galilee,Galilee,32.90368,35.09645
אליפלט,Elifelet,Upper Galilee,Galilee,32.94762,35.54931
פרוד,Farod,Upper Galilee,Galilee,32.93266,35.43316
גדות,Gadot,Upper Galilee,Galilee,33.01865,35.61879
גיתה,Gita,Upper Galilee,Galilee,32.96743,35.24793
הר חלוץ,Har Halutz,Upper Galilee,Galilee,32.94978,35.31249
חרשים,Harashim,Upper Galilee,Galilee,32.95678,35.32782
חצור הגלילית,Hatzor HaGlilit,Upper Galilee,Galilee,32.98418,35.54792
חמדת ימים,Hemdat Yamim,Upper Galilee,Galilee,32.94875,35.42492
חולתה,Hulata,Upper Galilee,Galilee,33.05114,35.60965
ג'דידה מכר,Jadeidi-Makr,Upper Galilee,Galilee,32.92695,35.13745
ג'וליס,Julis,Upper Galilee,Galilee,32.94271,35.18373
קדרים,Kadarim,Upper Galilee,Galilee,32.89852,35.4743
קדיתא,Kadita,Upper Galilee,Galilee,33.00517,35.46532
כחל,Kahal,Upper Galilee,Galilee,32.89169,35.50964
כמון - כמאנה מזרחית,Kamon - Kamane East,Upper Galilee,Galilee,32.91248,35.35426
כרכום,Karkom,Upper Galilee,Galilee,32.92953,35.60793
כרמיאל,Karmiel,Upper Galilee,Galilee,32.91052,35.28502
כפר הנשיא,Kfar HaNassi,Upper Galilee,Galilee,32.97561,35.60186
כפר מסריק,Kfar Masaryk,Upper Galilee,Galilee,32.89142,35.09856
כפר שמאי,Kfar Shamai,Upper Galilee,Galilee,32.95695,35.45837
כפר יאסיף,Kfar Yassif,Upper Galilee,Galilee,32.95314,35.16119
כישור,Kishor,Upper Galilee,Galilee,32.94615,35.24959
כסרא סמיע,Kisra-Sumei,Upper Galilee,Galilee,32.97141,35.3117
כליל,Klil,Upper Galilee,Galilee,32.98365,35.19216
כורזים ורד הגליל,Korazim Vered HaGalil,Upper Galilee,Galilee,32.90889,35.55191
לפידות,Lapidot,Upper Galilee,Galilee,32.95903,35.2611
לבון,Lavon,Upper Galilee,Galilee,32.94379,35.28599
לוחמי הגטאות,Lochamei HaGetaot,Upper Galilee,Galilee,32.96213,35.09864
מחניים,Machanaim,Upper Galilee,Galilee,32.98892,35.57192
מנחת מחניים,Machanaim Landing Pad,Upper Galilee,Galilee,32.98145,35.57239
מג'דל כרום,Majd Al-Krum,Upper Galilee,Galilee,32.92015,35.25302
מרכז אזורי מרום גליל,Marom HaGalil Regional Center,Upper Galilee,Galilee,32.998,35.44101
מזרעה,Mazra'a,Upper Galilee,Galilee,32.98347,35.10248
מירון,Meron,Upper Galilee,Galilee,32.98751,35.4416
מגדל תפן,Migdal Tefen,Upper Galilee,Galilee,32.97553,35.27498
משמר הירדן,Mishmar HaYarden,Upper Galilee,Galilee,33.0046,35.6
נחף,Nachaf,Upper Galilee,Galilee,32.93523,35.31921
נס עמים,Ness Amim,Upper Galilee,Galilee,32.96595,35.12086
נתיב השיירה,Netiv HaShayara,Upper Galilee,Galilee,32.99444,35.13567
אור הגנוז,Or HaGanuz,Upper Galilee,Galilee,33.00492,35.44608
אשרת,Oshrat,Upper Galilee,Galilee,32.97156,35.15686
פלך,Pelekh,Upper Galilee,Galilee,32.93286,35.23206
ראמה,Rama,Upper Galilee,Galilee,32.93891,35.36406
מרכז אזורי רמת כורזים,Ramat Korazim Regional Center,Upper Galilee,Galilee,32.93984,35.5506
רגבה,Regba,Upper Galilee,Galilee,32.97335,35.09747
ראש פינה,Rosh Pinna,Upper Galilee,Galilee,32.96545,35.54188
צפת - עכברה,Safed - 'Akbara,Upper Galilee,Galilee,32.94158,35.49756
צפת - עיר,Safed - City,Upper Galilee,Galilee,32.96914,35.50061
צפת - נוף כנרת,Safed - Nof Ha-Kinneret,Upper Galilee,Galilee,32.95265,35.52985
ספסופה - כפר חושן,Safsufa (Kfar Hoshen),Upper Galilee,Galilee,33.01096,35.43834
סאג'ור,Sajur,Upper Galilee,Galilee,32.9385,35.34422
שדה אליעזר,Sdeh Eliezer,Upper Galilee,Galilee,33.04676,35.56564
אזור תעשייה שער נעמן,Sha'ar Na'aman Industrial Zone,Upper Galilee,Galilee,32.8805,35.09761
שבי ציון,Shavei Zion,Upper Galilee,Galilee,32.97993,35.0837
שפר,Shefer,Upper Galilee,Galilee,32.94321,35.43587
שייח' דנון,Sheikh Danun,Upper Galilee,Galilee,32.99319,35.14853
שזור,Shezor,Upper Galilee,Galilee,32.93216,35.35231
שמרת,Shomrat,Upper Galilee,Galilee,32.95174,35.09585
טל - אל,Tal-El,Upper Galilee,Galilee,32.92622,35.17859
טובא זנגריה,Tuba-Zangariyye,Upper Galilee,Galilee,32.96533,35.59214
תובל,Tuval,Upper Galilee,Galilee,32.9294,35.2453
אזור תעשייה צ.ח.ר,Tzahar Industrial Zone,Upper Galilee,Galilee,32.97111,35.56753
צורית גילון,Tzurit Gilon,Upper Galilee,Galilee,32.90381,35.24882
ינוח ג'ת,Yanuh-Jat,Upper Galilee,Galilee,32.98051,35.25525
ירכא,Yarka,Upper Galilee,Galilee,32.95433,35.20566
יסעור,Yasur,Upper Galilee,Galilee,32.89962,35.1653
יסוד המעלה,Yesud Hama'ala,Upper Galilee,Galilee,33.05738,35.60552
עלומים,Alumim,Gaza Envelope,Gaza Area,31.45302,34.51465
אבשלום,Avshalom,Gaza Envelope,Gaza Area,31.19313,34.33042
בארי,Be'eri,Gaza Envelope,Gaza Area,31.42381,34.4914
בני נצרים,Bnei Netzarim,Gaza Envelope,Gaza Area,31.14525,34.31794
דקל,Dekel,Gaza Envelope,Gaza Area,31.19488,34.34485
עין הבשור,Ein HaBsor,Gaza Envelope,Gaza Area,31.27819,34.45017
עין השלושה,Ein HaShlosha,Gaza Envelope,Gaza Area,31.34987,34.40236
ארז,Erez,Gaza Envelope,Gaza Area,31.55903,34.56603
"גבים, מכללת ספיר","Gavim, Sapir College",Gaza Envelope,Gaza Area,31.50711,34.59732
גברעם,Gvaram,Gaza Envelope,Gaza Area,31.59023,34.61131
חולית,Holit,Gaza Envelope,Gaza Area,31.23015,34.32622
כרמיה,Karmia,Gaza Envelope,Gaza Area,31.60612,34.54137
כרם שלום,Kerem Shalom,Gaza Envelope,Gaza Area,31.22745,34.28581
כפר עזה,Kfar Azza,Gaza Envelope,Gaza Area,31.48177,34.53316
כפר מימון ותושיה,Kfar Maimon And Tushia,Gaza Envelope,Gaza Area,31.4324,34.53863
כיסופים,Kissufim,Gaza Envelope,Gaza Area,31.37411,34.39757
מגן,Magen,Gaza Envelope,Gaza Area,31.29969,34.42782
מפלסים,Mefalsim,Gaza Envelope,Gaza Area,31.5003,34.56468
"מבטחים, עמיעוז, ישע","Mivtahim, Ami'oz, Yesha",Gaza Envelope,Gaza Area,31.24262,34.40651
נחל עוז,Nachal Oz,Gaza Envelope,Gaza Area,31.47217,34.49837
נווה,Naveh,Gaza Envelope,Gaza Area,31.16204,34.33029
נתיב העשרה,Netiv HaAssara,Gaza Envelope,Gaza Area,31.57679,34.53119
ניר עם,Nir Am,Gaza Envelope,Gaza Area,31.51826,34.57743
מטווח ניר עם,Nir Am Shooting Range,Gaza Envelope,Gaza Area,31.51364,34.55479
ניר יצחק,Nir Itzhak,Gaza Envelope,Gaza Area,31.23698,34.35813
ניר עוז,Nir Oz,Gaza Envelope,Gaza Area,31.31293,34.40219
נירים,Nirim,Gaza Envelope,Gaza Area,31.33737,34.39541
חניון רעים אנדרטת הנובה,Nova Festival Victims Memorial Reim Parking,Gaza Envelope,Gaza Area,31.39791,34.46877
אור הנר,Or HaNer,Gaza Envelope,Gaza Area,31.55781,34.59999
פרי גן,Pri Gan,Gaza Envelope,Gaza Area,31.22283,34.35689
רעים,Reim,Gaza Envelope,Gaza Area,31.38493,34.45918
סעד,Sa'ad,Gaza Envelope,Gaza Area,31.46937,34.53467
שדי אברהם,Sdeh Avraham,Gaza Envelope,Gaza Area,31.21149,34.33684
שדה ניצן,Sdeh Nitzan,Gaza Envelope,Gaza Area,31.22863,34.4193
"שדרות, איבים","Sderot, Ibim",Gaza Envelope,Gaza Area,31.53133,34.59848
שלומית,Shlomit,Gaza Envelope,Gaza Area,31.16853,34.30393
שוקדה,Shokeda,Gaza Envelope,Gaza Area,31.42219,34.52628
סופה,Sufa,Gaza Envelope,Gaza Area,31.23686,34.34166
תלמי אליהו,Talmei Eliyahu,Gaza Envelope,Gaza Area,31.22828,34.42911
תלמי יוסף,Talmei Yossef,Gaza Envelope,Gaza Area,31.19964,34.36169
תקומה,Tkuma,Gaza Envelope,Gaza Area,31.44962,34.57646
יד מרדכי,Yad Mordechai,Gaza Envelope,Gaza Area,31.58868,34.5591
יכיני,Yakhini,Gaza Envelope,Gaza Area,31.48278,34.60104
יתד,Yated,Gaza Envelope,Gaza Area,31.20655,34.32535
יבול,Yevul,Gaza Envelope,Gaza Area,31.18825,34.3183
זיקים,Zikim,Gaza Envelope,Gaza Area,31.60889,34.52146
חוף זיקים,Zikim Beach,Gaza Envelope,Gaza Area,31.6164,34.50803
"זמרת, שובה","Zimrat, Shuva",Gaza Envelope,Gaza Area,31.45282,34.54443
"צוחר, אוהד","Zohar, Ohad",Gaza Envelope,Gaza Area,31.23898,34.42774
בית הגדי,Beit HaGdi,West Negev,Gaza Area,31.42987,34.60624
בטחה,Bitha,West Negev,Gaza Area,31.3431,34.63209
ברור חיל,Bror Hayil,West Negev,Gaza Area,31.55873,34.64693
ברוש,Brosh,West Negev,Gaza Area,31.3706,34.63133
דורות,Dorot,West Negev,Gaza Area,31.50527,34.64422
אשבול,Eshbol,West Negev,Gaza Area,31.44724,34.66765
אשל הנשיא,Eshel HaNassi,West Negev,Gaza Area,31.32586,34.69619
גילת,Gilat,West Negev,Gaza Area,31.32998,34.6526
גבולות,Gvulot,West Negev,Gaza Area,31.21174,34.46579
קלחים,Klachim,West Negev,Gaza Area,31.44698,34.67912
"מעגלים, גבעולים, מלילות","Ma'galim, Giv'olim, M'lilot",West Negev,Gaza Area,31.39219,34.59434
מבועים,Mabu'im,West Negev,Gaza Area,31.45033,34.65284
מסלול,Maslul,West Negev,Gaza Area,31.32351,34.58842
קריית חינוך מרחבים,Merhavim Educational Campus,West Negev,Gaza Area,31.31186,34.59496
נתיבות,Netivot,West Negev,Gaza Area,31.42711,34.58398
ניר עקיבא,Nir Akiva,West Negev,Gaza Area,31.4719,34.65541
ניר משה,Nir Moshe,West Negev,Gaza Area,31.47663,34.63058
אזור תעשייה נ.ע.מ,Noam Industrial Zone,West Negev,Gaza Area,31.41373,34.61461
אופקים,Ofakim,West Negev,Gaza Area,31.30838,34.63281
פעמי תש'ז,Pa'amei Tashaz,West Negev,Gaza Area,31.43817,34.69193
פטיש,Patish,West Negev,Gaza Area,31.32754,34.55813
פדויים,Pduim,West Negev,Gaza Area,31.3277,34.61368
רנן,Renan,West Negev,Gaza Area,31.33794,34.60128
רוחמה,Rochama,West Negev,Gaza Area,31.49687,34.70771
שדה צבי,Sdeh Zvi,West Negev,Gaza Area,31.44982,34.71115
שרשרת,Sharsheret,West Negev,Gaza Area,31.40468,34.60321
שבי דרום,Shavei Darom,West Negev,Gaza Area,31.46557,34.63555
שיבולים,Shibolim,West Negev,Gaza Area,31.39529,34.60692
תאשור,Ta'ashur,West Negev,Gaza Area,31.37151,34.64239
תלמי ביל'ו,Talmei Bilu,West Negev,Gaza Area,31.43826,34.64623
תדהר,Tidhar,West Negev,Gaza Area,31.37944,34.62667
תפרח,Tifrach,West Negev,Gaza Area,31.32596,34.68453
אורים,Urim,West Negev,Gaza Area,31.30445,34.52336
יושיביה,Yoshivia,West Negev,Gaza Area,31.44305,34.60869
צאלים,Ze'elim,West Negev,Gaza Area,31.20333,34.53396
זרועה,Zru'a,West Negev,Gaza Area,31.45921,34.62229
אבירים,Abirim,Confrontation Line,Golan,33.03959,35.28822
אלקוש,Alkosh,Confrontation Line,Golan,33.03443,35.32429
עלמה,Alma,Confrontation Line,Golan,33.05148,35.50042
עמיר,Amir,Confrontation Line,Golan,33.17799,35.6209
ערב אל עראמשה,Arab Al-Aramshe,Confrontation Line,Golan,33.09095,35.2262
עבדון,Avdon,Confrontation Line,Golan,33.04856,35.17974
אביבים,Avivim,Confrontation Line,Golan,33.0881,35.47187
ברעם,Baram,Confrontation Line,Golan,33.05684,35.43476
בית הלל,Beit Hillel,Confrontation Line,Golan,33.20743,35.60452
בן עמי,Ben Ami,Confrontation Line,Golan,33.0063,35.12453
בצת,Betzet,Confrontation Line,Golan,33.07109,35.13027
חוף בצת,Betzet Beach,Confrontation Line,Golan,33.08018,35.10662
כברי,Cabri,Confrontation Line,Golan,33.01758,35.14682
דפנה,Dafna,Confrontation Line,Golan,33.22937,35.63764
דלתון,Dalton,Confrontation Line,Golan,33.01652,35.49042
דישון,Dishon,Confrontation Line,Golan,33.08157,35.51824
דוב'ב,Dovev,Confrontation Line,Golan,33.05438,35.40958
אילון,Eilon,Confrontation Line,Golan,33.06241,35.21834
עין יעקב,Ein Yacov,Confrontation Line,Golan,33.0112,35.23275
אבן מנחם,Even Menachem,Confrontation Line,Golan,33.07479,35.29266
עברון,Evron,Confrontation Line,Golan,32.99144,35.10154
פסוטה,Fassuta,Confrontation Line,Golan,33.04856,35.30953
געתון,Ga'aton,Confrontation Line,Golan,33.00615,35.21375
גשר הזיו,Gesher HaZiv,Confrontation Line,Golan,33.03965,35.11183
ע'ג'ר,Ghajar,Confrontation Line,Golan,33.27221,35.62443
גונן,Gonen,Confrontation Line,Golan,33.1229,35.64607
גורן,Goren,Confrontation Line,Golan,33.05777,35.23934
גורנות הגליל,Gornot HaGalil,Confrontation Line,Golan,33.0599,35.24932
הגושרים,HaGoshrim,Confrontation Line,Golan,33.22157,35.62339
חניתה,Hanita,Confrontation Line,Golan,33.08744,35.17433
הילה,Hila,Confrontation Line,Golan,33.03592,35.24428
חוף אכזיב,Hof Achziv,Confrontation Line,Golan,33.05264,35.10334
חוסן,Hossen,Confrontation Line,Golan,32.9993,35.29561
חורפיש,Hurfeish,Confrontation Line,Golan,33.02181,35.34455
אדמית,Idmit,Confrontation Line,Golan,33.07944,35.20884
יפתח,Iftach,Confrontation Line,Golan,33.12609,35.55033
ג'ש - גוש חלב,Jish (Gush Halav),Confrontation Line,Golan,33.024,35.44554
כרם בן זמרה,Kerem Ben Zimra,Confrontation Line,Golan,33.03759,35.46696
כפר בלום,Kfar Blum,Confrontation Line,Golan,33.173,35.61069
כפר גלעדי,Kfar Giladi,Confrontation Line,Golan,33.243,35.57661
כפר סאלד,Kfar Szold,Confrontation Line,Golan,33.19393,35.65686
כפר ורדים,Kfar Vradim,Confrontation Line,Golan,32.99868,35.26838
כפר יובל,Kfar Yuval,Confrontation Line,Golan,33.24642,35.59624
קיבוץ דן,Kibutz Dan,Confrontation Line,Golan,33.24011,35.65264
קריית שמונה,Kiryat Shmona,Confrontation Line,Golan,33.20934,35.57251
להבות הבשן,Lehavot HaBashan,Confrontation Line,Golan,33.14113,35.64766
לימן,Lehman,Confrontation Line,Golan,33.05949,35.11282
לב החולה,Lev Ha-Hula,Confrontation Line,Golan,33.11033,35.58197
מעלות תרשיחא,Ma'a Lot Tarshicha,Confrontation Line,Golan,33.01428,35.27977
מעיין ברוך,Ma'ayan Baruch,Confrontation Line,Golan,33.24021,35.60726
מלכיה,Malkia,Confrontation Line,Golan,33.09824,35.5102
מנרה,Manara,Confrontation Line,Golan,33.19743,35.54409
מנות,Manot,Confrontation Line,Golan,33.03839,35.19515
מעונה,Maona,Confrontation Line,Golan,33.01705,35.26158
מרגליות,Margaliot,Confrontation Line,Golan,33.21358,35.54586
מתת,Matat,Confrontation Line,Golan,33.04044,35.3577
מטולה,Metulla,Confrontation Line,Golan,33.2779,35.57954
מצובה,Metzuba,Confrontation Line,Golan,33.06392,35.15686
מרכז אזורי מבואות חרמון,Mevuot Hermon Regional Council,Confrontation Line,Golan,33.12093,35.57
מעיליא,Mi'ilya,Confrontation Line,Golan,33.02719,35.25665
מכמנים - כמאנה מערבית,Mikhmanim - Kamane West,Confrontation Line,Golan,32.90752,35.32945
איזור תעשייה מילואות צפון,Milouot Industrial Zone North,Confrontation Line,Golan,33.06686,35.10866
משגב עם,Misgav Am,Confrontation Line,Golan,33.24674,35.54928
נהריה,Nahariya,Confrontation Line,Golan,33.01525,35.10256
בית העלמין החדש נהריה,Nahariya Cemetery,Confrontation Line,Golan,33.00509,35.14635
נאות מרדכי,Neot Mordechai,Confrontation Line,Golan,33.16009,35.59814
נטועה,Netua,Confrontation Line,Golan,33.06487,35.32497
נווה זיו,Neveh Ziv,Confrontation Line,Golan,33.0279,35.17924
פקיעין,Peki'in,Confrontation Line,Golan,32.97467,35.33343
פקיעין החדשה,Peki'in HaHadasha,Confrontation Line,Golan,32.98827,35.31584
אזור תעשייה רמת דלתון,Ramat Dalton Industrial Zone,Confrontation Line,Golan,33.02652,35.47969
רמות נפתלי,Ramot Naftali,Confrontation Line,Golan,33.09729,35.5515
ריחאנייה,Rehaniya,Confrontation Line,Golan,33.04769,35.48907
ראש הנקרה,Rosh HaNikra,Confrontation Line,Golan,33.08607,35.11582
סער,Sa'ar,Confrontation Line,Golan,33.03065,35.10938
סאסא,Sassa,Confrontation Line,Golan,33.02748,35.39609
בית ספר שדה מירון,Sdeh Meron School,Confrontation Line,Golan,33.00955,35.39346
שדה נחמיה,Sdeh Nechemia,Confrontation Line,Golan,33.18658,35.62311
שמיר,Shamir,Confrontation Line,Golan,33.1652,35.66091
שאר ישוב,Shear Yeshuv,Confrontation Line,Golan,33.22451,35.64879
שלומי,Shlomi,Confrontation Line,Golan,33.07465,35.15006
שומרה,Shomera,Confrontation Line,Golan,33.08463,35.28565
שתולה,Shtula,Confrontation Line,Golan,33.08526,35.31524
שניר,Snir,Confrontation Line,Golan,33.24003,35.67783
תל חי,Tel Hai,Confrontation Line,Golan,33.23347,35.58177
צוריאל,Tzuriel,Confrontation Line,Golan,33.00624,35.3146
יערה,Ya'ara,Confrontation Line,Golan,33.06768,35.18477
יחיעם,Yechiam,Confrontation Line,Golan,32.99729,35.22041
יראון,Yir'on,Confrontation Line,Golan,33.07745,35.454
זרעית,Zarit,Confrontation Line,Golan,33.09898,35.28449
צבעון,Zivon,Confrontation Line,Golan,33.02508,35.41683
בוקעתא,Buq'ata,Northern Golan,Golan,33.20487,35.78103
עין קנייא,Ein Quiniyye,Northern Golan,Golan,33.23664,35.7281
עין זיוון,Ein Zivan,Northern Golan,Golan,33.09665,35.79654
אל רום,El Rom,Northern Golan,Golan,33.18052,35.77074
קלע אלון,Kela Alon,Northern Golan,Golan,33.13077,35.68186
מג'דל שמס,Majdal Shams,Northern Golan,Golan,33.26162,35.76868
מסעדה,Mas'ade,Northern Golan,Golan,33.23223,35.76458
מרום גולן,Merom Golan,Northern Golan,Golan,33.13455,35.7768
נווה אטי'ב,Neveh Ativ,Northern Golan,Golan,33.26197,35.7416
נמרוד,Nimrod,Northern Golan,Golan,33.24572,35.75158
אודם,Odem,Northern Golan,Golan,33.1942,35.74914
אורטל,Ortal,Northern Golan,Golan,33.08481,35.76076
רמת טראמפ,Ramat Trump,Northern Golan,Golan,33.13289,35.68975
שעל,Sha'al,Northern Golan,Golan,33.11477,35.71881
אפיק,Afik,Southern Golan,Golan,32.77856,35.70195
אלמגור,Almagor,Southern Golan,Golan,32.91211,35.60205
אלוני הבשן,Alonei HaBashan,Southern Golan,Golan,33.04267,35.83775
אניעם,Aniam,Southern Golan,Golan,32.95786,35.74255
אשדות יעקב,Ashdot Yaacov,Southern Golan,Golan,32.66108,35.57989
אבני איתן,Avnei Eitan,Southern Golan,Golan,32.82269,35.76613
בני יהודה וגבעת יואב,Bnei Yehuda And Givat Yoav,Southern Golan,Golan,32.79884,35.68438
אזור תעשייה בני יהודה,Bnei Yehuda Industrial Zone,Southern Golan,Golan,32.80274,35.71711
עין גב,Ein Gev,Southern Golan,Golan,32.77671,35.63991
אלי עד,Eliad,Southern Golan,Golan,32.80556,35.73501
גשור,Gshur,Southern Golan,Golan,32.81724,35.7171
האון,Ha'On,Southern Golan,Golan,32.72532,35.62215
חד נס,Had Ness,Southern Golan,Golan,32.93207,35.64242
חמת גדר,Hamat Gader,Southern Golan,Golan,32.68444,35.66629
חספין,Haspin,Southern Golan,Golan,32.84557,35.79284
כנף,Kanaf,Southern Golan,Golan,32.87056,35.7
קצרין,Katzrin,Southern Golan,Golan,32.99141,35.68934
קצרין - אזור תעשייה,Katzrin - Industrial Area,Southern Golan,Golan,32.99048,35.71098
קשת,Keshet,Southern Golan,Golan,32.97893,35.80894
כפר חרוב,Kfar Haruv,Southern Golan,Golan,32.76216,35.66285
קדמת צבי,Kidmat Zvi,Southern Golan,Golan,33.02708,35.69722
מעגן,Ma'agan,Southern Golan,Golan,32.70645,35.59975
מעלה גמלא,Ma'aleh Gamla,Southern Golan,Golan,32.88797,35.68325
מסדה,Masada,Southern Golan,Golan,32.68317,35.5986
מיצר,Metzar,Southern Golan,Golan,32.76689,35.73608
מבוא חמה,Mevo Hama,Southern Golan,Golan,32.73744,35.65571
נטור,Natur,Southern Golan,Golan,32.85373,35.74984
נאות גולן,Neot Golan,Southern Golan,Golan,32.78648,35.69257
נוב,Nov,Southern Golan,Golan,32.8325,35.78323
רמת מגשימים,Ramat Magshimim,Southern Golan,Golan,32.84709,35.80831
רמות,Ramot,Southern Golan,Golan,32.84912,35.66624
שער הגולן,Sha'ar HaGolan,Southern Golan,Golan,32.68715,35.60414
תל קציר,Tel Katzir,Southern Golan,Golan,32.70578,35.61795
צמח,Tsemach,Southern Golan,Golan,32.70273,35.5861
יונתן,Yonatan,Southern Golan,Golan,32.93673,35.7943
ארגמן,Argaman,Baka,Haifa Area,32.17225,35.52261
בית חגלה,Beit Hogla,Baka,Haifa Area,31.82235,35.50416
בקעות,Beka'ot,Baka,Haifa Area,32.24268,35.45555
גלגל,Gilgal,Baka,Haifa Area,31.99955,35.44736
גיתית,Gitit,Baka,Haifa Area,32.09964,35.39784
חמרה,Hamra,Baka,Haifa Area,32.20367,35.42631
חמדת,Hemdat,Baka,Haifa Area,32.25179,35.52686
מעלה אפרים,Ma'aleh Ephraim,Baka,Haifa Area,32.07054,35.40517
משכיות,Maskiot,Baka,Haifa Area,32.31913,35.50484
משואה,Masua,Baka,Haifa Area,32.1166,35.4894
מחולה,Mehola,Baka,Haifa Area,32.36418,35.51473
מכורה,Mekhora,Baka,Haifa Area,32.16195,35.42278
מבואות יריחו,Mevuot Yericho,Baka,Haifa Area,31.90795,35.41833
נעמה,Na'ama,Baka,Haifa Area,31.91001,35.47142
נתיב הגדוד,Netiv HaGdud,Baka,Haifa Area,31.98851,35.44538
נערן,Niran,Baka,Haifa Area,31.96837,35.45664
פצאל,Petza'el,Baka,Haifa Area,32.04416,35.44376
רועי,Roee,Baka,Haifa Area,32.24851,35.48489
רותם,Rotem,Baka,Haifa Area,32.33661,35.51859
שדמות מחולה,Shadmot Mechola,Baka,Haifa Area,32.34691,35.53419
תומר,Tomer,Baka,Haifa Area,32.01591,35.44149
יפית,Yafit,Baka,Haifa Area,32.06015,35.47155
ייט'ב,Yitav,Baka,Haifa Area,31.94931,35.42182
עתלית,Atlit,HaCarmel,Haifa Area,32.69775,34.94636
בת שלמה,Bat Shlomo,HaCarmel,Haifa Area,32.60052,35.00201
בית אורן,Beit Oren,HaCarmel,Haifa Area,32.73168,35.00498
בית צבי,Beit Zvi,HaCarmel,Haifa Area,32.71816,34.9697
דלית אל כרמל,Daliyat Al-Karmel,HaCarmel,Haifa Area,32.69462,35.05013
"דור, נחשולים","Dor, Nachsholim",HaCarmel,Haifa Area,32.61201,34.92061
עין איילה,Ein Ayala,HaCarmel,Haifa Area,32.62875,34.94618
עין כרמל,Ein Carmel,HaCarmel,Haifa Area,32.67673,34.95464
עין חוד,Ein Chod,HaCarmel,Haifa Area,32.69146,34.99957
עין הוד,Ein Hod,HaCarmel,Haifa Area,32.69974,34.98262
פוריידיס,Fureidis,HaCarmel,Haifa Area,32.59673,34.956
גבע כרמל,Geva Carmel,HaCarmel,Haifa Area,32.66288,34.9547
גבעת וולפסון,Givat Wolfson,HaCarmel,Haifa Area,32.72066,35.01601
הבונים,HaBonim,HaCarmel,Haifa Area,32.63801,34.93321
עספיא,Isfiya,HaCarmel,Haifa Area,32.71331,35.06689
כרם מהר'ל,Kerem Maharal,HaCarmel,Haifa Area,32.6454,34.99059
בית סוהר קישון,Kishon Prison,HaCarmel,Haifa Area,32.72679,35.09173
מגדים,Megadim,HaCarmel,Haifa Area,32.72905,34.96176
מאיר שפיה,Meir Shfeya,HaCarmel,Haifa Area,32.59081,34.97085
מרכז מיר'ב,Merav Center,HaCarmel,Haifa Area,32.64675,34.96489
נווה ים,Neveh Yam,HaCarmel,Haifa Area,32.67888,34.93109
"ניר עציון, ימין אורד","Nir Etsion, Yamin Orde",HaCarmel,Haifa Area,32.70022,34.99142
עופר,Ofer,HaCarmel,Haifa Area,32.62277,34.98193
צרופה,Tzrufa,HaCarmel,Haifa Area,32.64865,34.94772
החותרים,HaHotrim,HaMifratz (The Bay),Haifa Area,32.75304,34.95495
חיפה - בת גלים ק.אליעזר,"Haifa - Bat Galim, Kiryat Eliezer",HaMifratz (The Bay),Haifa Area,32.82775,34.98012
חיפה - מפרץ,Haifa - Bay,HaMifratz (The Bay),Haifa Area,32.80496,35.05211
"חיפה - כרמל, הדר ועיר תחתית","Haifa - Carmel, Hadar And Downtown Lower City",HaMifratz (The Bay),Haifa Area,32.80682,34.98813
חיפה - קריית חיים ושמואל,Haifa - Kiryat Haim & Kiryat Shmuel,HaMifratz (The Bay),Haifa Area,32.82839,35.06482
חיפה - נווה שאנן ורמות כרמל,Haifa - Ramot HaCarmel And Neveh Sha'anan,HaMifratz (The Bay),Haifa Area,32.78076,35.00212
חיפה - מערב,Haifa - West,HaMifratz (The Bay),Haifa Area,32.80208,34.96264
איבטין,Ibtin,HaMifratz (The Bay),Haifa Area,32.76131,35.11365
כפר ביאליק,Kfar Biyalik,HaMifratz (The Bay),Haifa Area,32.82,35.0899
כפר גלים,Kfar Galim,HaMifratz (The Bay),Haifa Area,32.76678,34.957
כפר המכבי,Kfar HaMaccabi,HaMifratz (The Bay),Haifa Area,32.79021,35.11424
כפר חסידים,Kfar Hassidim,HaMifratz (The Bay),Haifa Area,32.74784,35.08904
קריית אתא,Kiryat Atta,HaMifratz (The Bay),Haifa Area,32.805,35.09135
אזור תעשייה קריית ביאליק,Kiryat Bialik Industrial Zone,HaMifratz (The Bay),Haifa Area,32.86718,35.0992
קריית ביאליק,Kiryat Biyalik,HaMifratz (The Bay),Haifa Area,32.83566,35.09537
קריית מוצקין,Kiryat Motzkin,HaMifratz (The Bay),Haifa Area,32.84168,35.0822
קריית ים,Kiryat Yam,HaMifratz (The Bay),Haifa Area,32.8477,35.07044
נשר,Nesher,HaMifratz (The Bay),Haifa Area,32.7679,35.04214
אזור תעשייה ניר עציון,Nir Etzion Industrial Area,HaMifratz (The Bay),Haifa Area,32.70378,34.97156
רמת יוחנן,Ramat Yochana,HaMifratz (The Bay),Haifa Area,32.79303,35.12272
רכסים,Rechasim,HaMifratz (The Bay),Haifa Area,32.75122,35.10746
בית עלמין תל רגב,Tel Regev Cemetary,HaMifratz (The Bay),Haifa Area,32.76879,35.12516
טירת כרמל,Tirat Carmel,HaMifratz (The Bay),Haifa Area,32.76113,34.97161
אושה,Usha,HaMifratz (The Bay),Haifa Area,32.79629,35.11356
יגור,Yagur,HaMifratz (The Bay),Haifa Area,32.74315,35.07707
אלוני יצחק,Alonei Itzhak,Menashe,Haifa Area,32.51028,35.00455
עמיקם,Amikam,Menashe,Haifa Area,32.5643,35.0244
אביאל,Aviel,Menashe,Haifa Area,32.53142,34.99265
ברקאי,Barkai,Menashe,Haifa Area,32.47589,35.03003
בית חנניה,Beit Hanania,Menashe,Haifa Area,32.52908,34.92572
בנימינה,Binyamina,Menashe,Haifa Area,32.52133,34.94528
קיסריה,Caesarea,Menashe,Haifa Area,32.50588,34.90602
נמל קיסריה,Caesarea Harbor,Menashe,Haifa Area,32.5015,34.89258
אזור תעשייה קיסריה,Caesarea Industrial Zone,Menashe,Haifa Area,32.48282,34.94819
"בי""ס כרמים בנימינה",Cramim Binyamina School,Menashe,Haifa Area,32.54632,34.95654
עין עירון,Ein Iron,Menashe,Haifa Area,32.48274,35.00903
עין שמר,Ein Shemer,Menashe,Haifa Area,32.46321,35.00785
גן השומרון,Gan HaShomron,Menashe,Haifa Area,32.46181,34.99851
גן שמואל,Gan Shmuel,Menashe,Haifa Area,32.44898,34.95247
גבעת עדה,Givat Ada,Menashe,Haifa Area,32.52111,35.01152
חדרה - מרכז,Hadera - Center,Menashe,Haifa Area,32.43143,34.92369
חדרה - מזרח,Hadera - East,Menashe,Haifa Area,32.42515,34.94982
חדרה - נווה חיים,Hadera - Neveh Haim,Menashe,Haifa Area,32.44889,34.9064
חדרה - מערב,Hadera - West,Menashe,Haifa Area,32.4335,34.88224
ג'סר א-זרקא,Jisr Az-Zarqa,Menashe,Haifa Area,32.53904,34.91213
כפר גליקסון,Kfar Glickson,Menashe,Haifa Area,32.50602,35.00475
כפר פינס,Kfar Pinnes,Menashe,Haifa Area,32.48478,35.00272
תחנת רכבת כפר יהושוע,Kfar Yehoshua Train Station,Menashe,Haifa Area,32.68149,35.125
להבות חביבה,Lehavot Haviva,Menashe,Haifa Area,32.39439,35.0095
מעגן מיכאל,Ma'agan Michael,Menashe,Haifa Area,32.5574,34.91666
מעיין צבי,Ma'ayan Zvi,Menashe,Haifa Area,32.56719,34.94009
"מענית, גבעת חביבה","Maanit, Givat Haviva",Menashe,Haifa Area,32.45861,35.02595
מאור,Maor,Menashe,Haifa Area,32.42421,35.00552
אזור תעשייה מבוא כרמל,Mevo Carmel Industrial Zone,Menashe,Haifa Area,32.61649,35.07088
משמרות,Mishmarot,Menashe,Haifa Area,32.48847,34.98385
אור עקיבא,Or Akiva,Menashe,Haifa Area,32.50231,34.9219
פרדס חנה כרכור,Pardes Hanna - Kakur,Menashe,Haifa Area,32.4763,34.97734
שדה יצחק,Sdeh Itzhak,Menashe,Haifa Area,32.40399,34.99441
שדות ים,Sdot Yam,Menashe,Haifa Area,32.48944,34.89352
שער מנשה,Sha'ar Menashe,Menashe,Haifa Area,32.44732,35.01572
מתחם שביל התפוזים,Shvil HaTapuzim Compound,Menashe,Haifa Area,32.45978,34.94078
תלמי אלעזר,Talmei Elazar,Menashe,Haifa Area,32.44514,34.97888
אזור תעשייה יקנעם עילית,Yokneam Illit Industrial Zone,Menashe,Haifa Area,32.66393,35.105
זכרון יעקב,Zichron Yacov,Menashe,Haifa Area,32.56877,34.9548
אל עריאן,Al Arian,Wadi Ara,Haifa Area,32.49818,35.12491
ערערה,Ar'ara,Wadi Ara,Haifa Area,32.50053,35.09318
עין אל סהלה,Ayn Al-Sahla,Wadi Ara,Haifa Area,32.49031,35.1165
ברטעה,Bart'a,Wadi Ara,Haifa Area,32.47215,35.09514
באקה אל גרבייה,Bqa Al-Gharbiyye,Wadi Ara,Haifa Area,32.41581,35.03757
דליה,Dalia,Wadi Ara,Haifa Area,32.59012,35.07545
עין העמק,Ein HaEmek,Wadi Ara,Haifa Area,32.62926,35.08497
עין השופט,Ein HaShofet,Wadi Ara,Haifa Area,32.59606,35.09908
אליקים,Elyakim,Wadi Ara,Haifa Area,32.63269,35.06846
גלעד,Gal'ed,Wadi Ara,Haifa Area,32.55766,35.07636
גבעת ניל'י,Givat Nili,Wadi Ara,Haifa Area,32.54805,35.04189
גבעת עוז,Givat Oz,Wadi Ara,Haifa Area,32.55544,35.19808
חריש,Harish,Wadi Ara,Haifa Area,32.45968,35.04924
ג'ת,Jatt,Wadi Ara,Haifa Area,32.3984,35.03558
קציר,Katzir,Wadi Ara,Haifa Area,32.48439,35.11565
כפר קרע,Kfar Kara,Wadi Ara,Haifa Area,32.50327,35.04745
קיבוץ מגידו,Kibutz Megiddo,Wadi Ara,Haifa Area,32.57856,35.18072
מעלה עירון,Ma'aleh Iron,Wadi Ara,Haifa Area,32.54811,35.18784
מגל,Magal,Wadi Ara,Haifa Area,32.38545,35.03117
מי עמי,Mei Ami,Wadi Ara,Haifa Area,32.50266,35.14388
מייסר,Meiser,Wadi Ara,Haifa Area,32.44468,35.04251
מצר,Metzer,Wadi Ara,Haifa Area,32.43992,35.05089
מדרך עוז,Midrach Oz,Wadi Ara,Haifa Area,32.59685,35.15838
משמר העמק,Mishmar HaEmek,Wadi Ara,Haifa Area,32.60948,35.1418
מצפה אילן,Mitzpeh Ilan,Wadi Ara,Haifa Area,32.46165,35.06865
מועאוויה,Mu'awiya,Wadi Ara,Haifa Area,32.53124,35.10437
רמת השופט,Ramat HaShofet,Wadi Ara,Haifa Area,32.6118,35.09301
רמות מנשה,Ramot Menashe,Wadi Ara,Haifa Area,32.59646,35.05725
רגבים,Regavim,Wadi Ara,Haifa Area,32.52292,35.0366
אום אל פחם,Umm Al-Fahm,Wadi Ara,Haifa Area,32.52644,35.15556
אום אל קוטוף,Umm Al-Qutuf,Wadi Ara,Haifa Area,32.46886,35.06025
יקנעם עילית,Yokneam Illit,Wadi Ara,Haifa Area,32.64947,35.09626
יקנעם המושבה והזורע,Yokneam Moshava And HaZoreah,Wadi Ara,Haifa Area,32.65277,35.11624
עמינדב,Aminadav,Jerusalem,Jerusalem,31.75213,35.14142
בית זית,Beit Zayit,Jerusalem,Jerusalem,31.78209,35.16137
פנימיית עין כרם,Ein Kerem Boarding School,Jerusalem,Jerusalem,31.77815,35.15302
אבן ספיר,Even Sapir,Jerusalem,Jerusalem,31.76361,35.13393
גבעת זאב,Givat Ze'ev,Jerusalem,Jerusalem,31.8506,35.16576
גבעון החדשה,Givon HaHadasha,Jerusalem,Jerusalem,31.84814,35.15751
ירושלים - אזור תעשייה עטרות,Jerusalem - Atarot Industrial Zone,Jerusalem,Jerusalem,31.86068,35.21655
ירושלים - מרכז,Jerusalem - Center,Jerusalem,Jerusalem,31.77814,35.21661
ירושלים - מזרח,Jerusalem - East,Jerusalem,Jerusalem,31.76274,35.24046
ירושלים - צפון,Jerusalem - North,Jerusalem,Jerusalem,31.82131,35.23894
ירושלים - כפר עקב,Jerusalem - Qafr 'Aqab,Jerusalem,Jerusalem,31.87451,35.21763
ירושלים - דרום,Jerusalem - South,Jerusalem,Jerusalem,31.73777,35.18796
ירושלים - מערב,Jerusalem - West,Jerusalem,Jerusalem,31.77438,35.17282
מבשרת ציון,Mevasseret Zion,Jerusalem,Jerusalem,31.79735,35.14042
מוצא עילית,Motza Illit,Jerusalem,Jerusalem,31.79378,35.15692
אורה,Ora,Jerusalem,Jerusalem,31.75307,35.15256
אחיעזר,Achiezer,HaShfela,Sharon / Shephelah,31.98071,34.87165
אחיסמך,Ahisemech,HaShfela,Sharon / Shephelah,31.93487,34.9073
עיינות,Ayanot,HaShfela,Sharon / Shephelah,31.91736,34.76805
עזריה,Azaria,HaShfela,Sharon / Shephelah,31.89004,34.90309
באר יעקב,Be'er Yacov,HaShfela,Sharon / Shephelah,31.9443,34.84484
בית דגן,Beit Dagan,HaShfela,Sharon / Shephelah,31.99707,34.82762
בית חנן,Beit Hanan,HaShfela,Sharon / Shephelah,31.93617,34.77636
בית חשמונאי,Beit Hashmonai,HaShfela,Sharon / Shephelah,31.88884,34.91986
בית עובד,Beit Oved,HaShfela,Sharon / Shephelah,31.92429,34.76679
בית עוזיאל,Beit Uziel,HaShfela,Sharon / Shephelah,31.87084,34.90536
בן שמן,Ben Shemen,HaShfela,Sharon / Shephelah,31.95137,34.92001
כפר נוער בן שמן,Ben Shemen Youth Village,HaShfela,Sharon / Shephelah,31.95994,34.92733
גן שלמה,Gan Shlomo,HaShfela,Sharon / Shephelah,31.87826,34.79787
גן שורק,Gan Sorek,HaShfela,Sharon / Shephelah,31.94478,34.75851
גני הדר,Ganei Hadar,HaShfela,Sharon / Shephelah,31.87854,34.85404
גני יוחנן,Ganei Yochanan,HaShfela,Sharon / Shephelah,31.85603,34.83271
גנות,Ganot,HaShfela,Sharon / Shephelah,32.01775,34.82873
גאליה,Ge'alya,HaShfela,Sharon / Shephelah,31.88435,34.766
אזור תעשייה גדרה,Gedera Industrial Area,HaShfela,Sharon / Shephelah,31.7996,34.76775
גזר,Gezer,HaShfela,Sharon / Shephelah,31.87641,34.92081
גיבתון,Gibton,HaShfela,Sharon / Shephelah,31.88844,34.7999
גינתון,Ginaton,HaShfela,Sharon / Shephelah,31.96374,34.91433
חמד,Hemed,HaShfela,Sharon / Shephelah,32.0183,34.84305
חולדה,Hulda,HaShfela,Sharon / Shephelah,31.83098,34.8832
אירוס,Irus,HaShfela,Sharon / Shephelah,31.92927,34.77661
כרמי יוסף,Karmei Yossef,HaShfela,Sharon / Shephelah,31.84754,34.9201
כפר ביל'ו,Kfar Bilu,HaShfela,Sharon / Shephelah,31.87369,34.82556
כפר בן נון,Kfar Bin Nun,HaShfela,Sharon / Shephelah,31.86096,34.94725
כפר חב'ד,Kfar Chabad,HaShfela,Sharon / Shephelah,31.99041,34.84964
כפר שמואל,Kfar Shmuel,HaShfela,Sharon / Shephelah,31.8887,34.93224
קריית עקרון,Kiryat Ekron,HaShfela,Sharon / Shephelah,31.86167,34.81959
לוד,Lod,HaShfela,Sharon / Shephelah,31.9525,34.89088
מצליח,Matzliach,HaShfela,Sharon / Shephelah,31.90599,34.87188
מזכרת בתיה,Mazkeret Batya,HaShfela,Sharon / Shephelah,31.84391,34.84544
משמר איילון,Mishmar Ayalon,HaShfela,Sharon / Shephelah,31.87245,34.94477
משמר דוד,Mishmar David,HaShfela,Sharon / Shephelah,31.82143,34.90025
משמר השבעה,Mishmar HaShiva,HaShfela,Sharon / Shephelah,32.00977,34.82402
נען,Na'an,HaShfela,Sharon / Shephelah,31.88528,34.85576
אזור תעשייה נשר - רמלה,Nesher Industrial Zone (Ramla),HaShfela,Sharon / Shephelah,31.92195,34.88963
נס ציונה,Ness Ziona,HaShfela,Sharon / Shephelah,31.92406,34.7969
נטעים,Neta'im,HaShfela,Sharon / Shephelah,31.94254,34.7743
נצר חזני,Netzer Hazani,HaShfela,Sharon / Shephelah,31.82052,34.86218
נצר סרני,Netzer Sireni,HaShfela,Sharon / Shephelah,31.92427,34.82455
ניר צבי,Nir Zvi,HaShfela,Sharon / Shephelah,31.95107,34.86373
פארק תעשיות פלמחים,Palmachin Industrial Park,HaShfela,Sharon / Shephelah,31.95322,34.76821
פדיה,Pdaya,HaShfela,Sharon / Shephelah,31.85752,34.87904
פתחיה,Ptachia,HaShfela,Sharon / Shephelah,31.86557,34.88609
רמלה,Ramla,HaShfela,Sharon / Shephelah,31.92665,34.86462
רמות מאיר,Ramot Meir,HaShfela,Sharon / Shephelah,31.87286,34.85845
רחובות,Rehovot,HaShfela,Sharon / Shephelah,31.89207,34.80169
ראשון לציון - מזרח,Rishon LeZion - East,HaShfela,Sharon / Shephelah,31.9727,34.80619
ראשון לציון - מערב,Rishon LeZion - West,HaShfela,Sharon / Shephelah,31.98095,34.76794
סתריה,Sitria,HaShfela,Sharon / Shephelah,31.88993,34.84384
צפריה,Tzafria,HaShfela,Sharon / Shephelah,32.00293,34.85729
יד רמב'ם,Yad Rambam,HaShfela,Sharon / Shephelah,31.90025,34.90212
יגל,Yagel,HaShfela,Sharon / Shephelah,31.98824,34.8799
ישרש,Yashresh,HaShfela,Sharon / Shephelah,31.91457,34.84712
יציץ,Yatzitz,HaShfela,Sharon / Shephelah,31.8633,34.86149
יסודות,Yesodot,HaShfela,Sharon / Shephelah,31.81567,34.8638
זיתן,Zeitan,HaShfela,Sharon / Shephelah,31.9753,34.88928
תעשיון צריפין,Zrifin Industrial Zone,HaShfela,Sharon / Shephelah,31.96323,34.85285
אחווה,Achva,Lachish,Sharon / Shephelah,31.74378,34.76912
אזור תעשייה עד הלום,Ad Halom Industrial Zone,Lachish,Sharon / Shephelah,31.76243,34.66307
אחוזם,Ahuzam,Lachish,Sharon / Shephelah,31.55297,34.77078
אל עזי,Al Azi,Lachish,Sharon / Shephelah,31.72143,34.79799
אלומה,Aluma,Lachish,Sharon / Shephelah,31.65247,34.74319
ערוגות,Arugot,Lachish,Sharon / Shephelah,31.73519,34.77507
"אשדוד - א,ב,ד,ה","Ashdod - Alef, Bet, Dalet, Heh",Lachish,Sharon / Shephelah,31.80473,34.64694
"אשדוד - ג,ו,ז","Ashdod - Gimmel, Vav, Zain",Lachish,Sharon / Shephelah,31.79663,34.66155
"אשדוד - ח,ט,י,יג,יד,טז","Ashdod - Het, Tet, Yod, Yod Gimmel, Yod Dalet, Te*",Lachish,Sharon / Shephelah,31.77791,34.65338
אשדוד - איזור תעשייה צפוני,Ashdod - Northen Industrial Zone,Lachish,Sharon / Shephelah,31.83016,34.65851
"אשדוד -יא,יב,טו,יז,מרינה,סיטי","Ashdod-11,12,15,17,Marine,City",Lachish,Sharon / Shephelah,31.78362,34.63321
עשרת,Asseret,Lachish,Sharon / Shephelah,31.82416,34.74717
אביגדור,Avigdor,Lachish,Sharon / Shephelah,31.70919,34.74202
עזריקם,Azrikam,Lachish,Sharon / Shephelah,31.75042,34.69582
באר טוביה,Be'er Tuvia,Lachish,Sharon / Shephelah,31.73364,34.72009
אזור תעשייה באר טוביה,Be'er Tuvia Industrial Zone,Lachish,Sharon / Shephelah,31.72413,34.75072
בית אלעזרי,Beit Elazari,Lachish,Sharon / Shephelah,31.84465,34.80482
בית עזרא,Beit Ezra,Lachish,Sharon / Shephelah,31.73691,34.65478
בית גמליאל,Beit Gamliel,Lachish,Sharon / Shephelah,31.8581,34.76162
בית חלקיה,Beit Hilkia,Lachish,Sharon / Shephelah,31.79262,34.81204
בן זכאי,Ben Zakai,Lachish,Sharon / Shephelah,31.85652,34.72702
ביצרון,Bitzaron,Lachish,Sharon / Shephelah,31.79605,34.72858
בניה,Bnaya,Lachish,Sharon / Shephelah,31.8436,34.75048
בני עי'ש,Bnei Ayish,Lachish,Sharon / Shephelah,31.79127,34.75754
בני דרום,Bnei Darom,Lachish,Sharon / Shephelah,31.81978,34.69134
מתחם בני דרום,Bnei Darom Compound,Lachish,Sharon / Shephelah,31.82166,34.70221
בני ראם,Bnei Re'em,Lachish,Sharon / Shephelah,31.76861,34.79115
עין צורים,Ein Tzurim,Lachish,Sharon / Shephelah,31.69541,34.7204
איתן,Eitan,Lachish,Sharon / Shephelah,31.57234,34.74757
אמונים,Emunim,Lachish,Sharon / Shephelah,31.74395,34.67572
אבן שמואל,Even Shmuel,Lachish,Sharon / Shephelah,31.57495,34.76537
עזר,Ezer,Lachish,Sharon / Shephelah,31.73712,34.6706
גן הדרום,Gan HaDarom,Lachish,Sharon / Shephelah,31.80445,34.70271
גן יבנה,Gan Yavne,Lachish,Sharon / Shephelah,31.78615,34.70534
גני טל,Ganei Tal,Lachish,Sharon / Shephelah,31.78785,34.79159
גת,Gat,Lachish,Sharon / Shephelah,31.62771,34.79417
גדרה,Gdera,Lachish,Sharon / Shephelah,31.81109,34.77705
גבעת ברנר,Givat Brenner,Lachish,Sharon / Shephelah,31.86543,34.80426
גבעת וושינגטון,Givat Washington,Lachish,Sharon / Shephelah,31.81738,34.72931
גבעתי,Givati,Lachish,Sharon / Shephelah,31.73174,34.68037
חפץ חיים,Hafetz Haim,Lachish,Sharon / Shephelah,31.78903,34.80138
חצב,Hatzav,Lachish,Sharon / Shephelah,31.77762,34.77018
חצור,Hatzor,Lachish,Sharon / Shephelah,31.77464,34.71867
כנות,Kannot,Lachish,Sharon / Shephelah,31.80248,34.75174
אזור תעשייה כנות,Kannot Industrial Zone,Lachish,Sharon / Shephelah,31.80146,34.75947
קדמה,Kedma,Lachish,Sharon / Shephelah,31.70085,34.77468
כרם ביבנה,Kerem BeYavne,Lachish,Sharon / Shephelah,31.81911,34.72339
כפר אחים,Kfar Achim,Lachish,Sharon / Shephelah,31.74502,34.75604
כפר אביב,Kfar Aviv,Lachish,Sharon / Shephelah,31.83184,34.72003
כפר הנגיד,Kfar HaNagid,Lachish,Sharon / Shephelah,31.88761,34.74811
כפר הרי'ף וצומת ראם,Kfar HaRif And Re'em Junction,Lachish,Sharon / Shephelah,31.75109,34.78462
כפר מרדכי,Kfar Mordechai,Lachish,Sharon / Shephelah,31.83167,34.75429
כפר ורבורג,Kfar Warburg,Lachish,Sharon / Shephelah,31.72012,34.72496
קדרון,Kidron,Lachish,Sharon / Shephelah,31.81598,34.79878
"קריית גת, כרמי גת","Kiryat Gat , Karmei Gat",Lachish,Sharon / Shephelah,31.61975,34.76593
אזור תעשייה קריית גת,Kiryat Gat - Industrial Zone,Lachish,Sharon / Shephelah,31.59441,34.78865
תחנת רכבת קריית מלאכי - יואב,Kiryat Mal'akhi-Yoav Train Station,Lachish,Sharon / Shephelah,31.74722,34.82218
קריית מלאכי,Kiryat Malachi,Lachish,Sharon / Shephelah,31.73198,34.74569
קוממיות,Kommemiut,Lachish,Sharon / Shephelah,31.6633,34.72946
קבוצת יבנה,Kvutzat Yavne,Lachish,Sharon / Shephelah,31.81662,34.71938
לכיש,Lakhish,Lachish,Sharon / Shephelah,31.56501,34.84152
מעון צופיה,Maon Tzofia,Lachish,Sharon / Shephelah,31.85606,34.7384
משואות יצחק,Masuot Itzhak,Lachish,Sharon / Shephelah,31.70286,34.69079
מישר,Meishar,Lachish,Sharon / Shephelah,31.81863,34.75334
מנוחה,Menucha,Lachish,Sharon / Shephelah,31.65628,34.77613
מרכז שפירא,Merkaz Shapira,Lachish,Sharon / Shephelah,31.69568,34.70614
משגב דב,Misgav Dov,Lachish,Sharon / Shephelah,31.81941,34.74046
נחלה,Nachla,Lachish,Sharon / Shephelah,31.65838,34.79502
נגבה,Negba,Lachish,Sharon / Shephelah,31.66047,34.68247
נהורה,Nehora,Lachish,Sharon / Shephelah,31.62301,34.70479
נווה מבטח,Neveh Mivtach,Lachish,Sharon / Shephelah,31.8067,34.74195
ניר בנים,Nir Banim,Lachish,Sharon / Shephelah,31.67201,34.75347
ניר ח'ן,Nir Chen,Lachish,Sharon / Shephelah,31.61024,34.71421
ניר גלים,Nir Galim,Lachish,Sharon / Shephelah,31.82447,34.68287
נועם,Noam,Lachish,Sharon / Shephelah,31.56684,34.7885
נוגה,Noga,Lachish,Sharon / Shephelah,31.62266,34.69541
אורות,Orot,Lachish,Sharon / Shephelah,31.74219,34.73428
עוצם,Otzem,Lachish,Sharon / Shephelah,31.63822,34.70525
פלמחים,Palmachim,Lachish,Sharon / Shephelah,31.93451,34.71157
פארק תעשייה ראם,Re'em Industrial Park,Lachish,Sharon / Shephelah,31.77203,34.75375
רווחה,Revacha,Lachish,Sharon / Shephelah,31.64896,34.73584
רבדים,Revadim,Lachish,Sharon / Shephelah,31.77178,34.81654
אזור תעשייה רבדים,Revadim Industrial Zone,Lachish,Sharon / Shephelah,31.78559,34.82201
שדה דוד,Sdeh David,Lachish,Sharon / Shephelah,31.57501,34.68303
שדה משה,Sdeh Moshe,Lachish,Sharon / Shephelah,31.61101,34.80082
שדה עוזיהו,Sdeh Uziahu,Lachish,Sharon / Shephelah,31.7591,34.67799
שדה יואב,Sdeh Yoav,Lachish,Sharon / Shephelah,31.64487,34.67801
סגולה,Sgula,Lachish,Sharon / Shephelah,31.67182,34.78007
שחר,Shachar,Lachish,Sharon / Shephelah,31.62444,34.72657
שפיר,Shafir,Lachish,Sharon / Shephelah,31.69642,34.73104
שלווה,Shalva,Lachish,Sharon / Shephelah,31.56469,34.76834
שדמה,Shdema,Lachish,Sharon / Shephelah,31.83274,34.7423
שתולים,Shtulim,Lachish,Sharon / Shephelah,31.77723,34.68176
תלמי יחיאל,Talmei Yehiel,Lachish,Sharon / Shephelah,31.75411,34.76029
תימורים,Timorim,Lachish,Sharon / Shephelah,31.71566,34.7591
אזור תעשייה תימורים,Timorimg Industrial Zone,Lachish,Sharon / Shephelah,31.72444,34.75933
תלמים,Tlamim,Lachish,Sharon / Shephelah,31.56556,34.67198
עוזה,Uzza,Lachish,Sharon / Shephelah,31.59226,34.76311
ורדון,Vardon,Lachish,Sharon / Shephelah,31.66403,34.78153
יד בנימין,Yad Binyamin,Lachish,Sharon / Shephelah,31.79621,34.82184
יד נתן,Yad Natan,Lachish,Sharon / Shephelah,31.65379,34.70542
יבנה,Yavne,Lachish,Sharon / Shephelah,31.87813,34.73753
ינון,Yinon,Lachish,Sharon / Shephelah,31.74288,34.78133
זבדיאל,Zavdiel,Lachish,Sharon / Shephelah,31.65875,34.76001
זוהר,Zohar,Lachish,Sharon / Shephelah,31.59578,34.69261
זרחיה,Zrahia,Lachish,Sharon / Shephelah,31.68195,34.74634
עדנים,Adanim,Sharon,Sharon / Shephelah,32.13984,34.90662
אחיטוב,Ahituv,Sharon,Sharon / Shephelah,32.38809,34.98949
אלפי מנשה,Alfei Menashe,Sharon,Sharon / Shephelah,32.17149,35.00998
אמץ,Amatz,Sharon,Sharon / Shephelah,32.36841,34.99401
ארסוף,Arsuf,Sharon,Sharon / Shephelah,32.20902,34.81596
אביחיל,Avihail,Sharon,Sharon / Shephelah,32.3508,34.8721
עזריאל,Azriel,Sharon,Sharon / Shephelah,32.2617,34.97037
בחן,Bahan,Sharon,Sharon / Shephelah,32.35069,35.01881
בת חן,Bat Chen,Sharon,Sharon / Shephelah,32.36002,34.87267
בת חפר,Bat Hefer,Sharon,Sharon / Shephelah,32.33544,35.0131
בצרה,Batzra,Sharon,Sharon / Shephelah,32.21326,34.8796
בארותיים,Be'erotaim,Sharon,Sharon / Shephelah,32.3229,34.98566
בית ברל,Beit Berl,Sharon,Sharon / Shephelah,32.20127,34.9242
בית הלוי,Beit HaLevi,Sharon,Sharon / Shephelah,32.35386,34.93214
בית חרות,Beit Herut,Sharon,Sharon / Shephelah,32.37923,34.86713
בית ינאי,Beit Yannai,Sharon,Sharon / Shephelah,32.3825,34.86389
בית יהושע,Beit Yehoshua,Sharon,Sharon / Shephelah,32.26072,34.86307
בית יצחק - שער חפר,Beit Yithak - Sha'ar Hefer,Sharon,Sharon / Shephelah,32.335,34.89158
ביתן אהרן,Bitan Aharon,Sharon,Sharon / Shephelah,32.36456,34.86967
בני דרור,Bnei Dror,Sharon,Sharon / Shephelah,32.26205,34.89911
בני ציון,Bnei Zion,Sharon,Sharon / Shephelah,32.21886,34.86462
בורגתה,Burgata,Sharon,Sharon / Shephelah,32.32477,34.96219
עין החורש,Ein HaHoresh,Sharon,Sharon / Shephelah,32.38566,34.939
עין שריד,Ein Sarid,Sharon,Sharon / Shephelah,32.27369,34.93452
עין ורד,Ein Vered,Sharon,Sharon / Shephelah,32.2636,34.93098
אלישמע,Elishema,Sharon,Sharon / Shephelah,32.15239,34.92836
אלקנה,Elkana,Sharon,Sharon / Shephelah,32.11239,35.03425
אליכין,Elyachin,Sharon,Sharon / Shephelah,32.40771,34.92188
אלישיב,Elyashiv,Sharon,Sharon / Shephelah,32.3808,34.90944
אזור תעשייה עמק חפר,Emek Heffer Industrial Zone,Sharon,Sharon / Shephelah,32.40107,34.89614
עץ אפרים,Etz Ephraim,Sharon,Sharon / Shephelah,32.11768,35.04513
אבן יהודה,Even Yehuda,Sharon,Sharon / Shephelah,32.2721,34.8855
אייל,Eyal,Sharon,Sharon / Shephelah,32.21017,34.97964
געש,Ga'ash,Sharon,Sharon / Shephelah,32.22957,34.82496
גן חיים,Gan Haim,Sharon,Sharon / Shephelah,32.19472,34.90575
גן יאשיה,Gan Yoshia,Sharon,Sharon / Shephelah,32.34833,34.99371
גני עם,Ganei Am,Sharon,Sharon / Shephelah,32.15092,34.90178
גאולי תימן,Geulei Teiman,Sharon,Sharon / Shephelah,32.39119,34.90145
גאולים,Geulim,Sharon,Sharon / Shephelah,32.29898,34.95042
גנות הדר,Ginot Hadar,Sharon,Sharon / Shephelah,32.32068,34.90097
גבעת חיים איחוד,Givat Haim (Ihud),Sharon,Sharon / Shephelah,32.39954,34.93316
גבעת חיים מאוחד,Givat Haim (Meuhad),Sharon,Sharon / Shephelah,32.39065,34.93144
גבעת חן,Givat Hen,Sharon,Sharon / Shephelah,32.16323,34.87203
גבעת שפירא,Givat Shapira,Sharon,Sharon / Shephelah,32.35754,34.87644
המעפיל,HaMa'apil,Sharon,Sharon / Shephelah,32.37778,34.98321
העוגן,HaOgen,Sharon,Sharon / Shephelah,32.36108,34.92436
הדר עם,Hadar Am,Sharon,Sharon / Shephelah,32.34946,34.9015
חגור,Hagor,Sharon,Sharon / Shephelah,32.13869,34.94868
חניאל,Haniel,Sharon,Sharon / Shephelah,32.33329,34.94951
חרוצים,Harutzim,Sharon,Sharon / Shephelah,32.22781,34.86453
חבצלת השרון וצוקי ים,Havatzelet HaSharon And Tzukei Yam,Sharon,Sharon / Shephelah,32.36046,34.86147
חרב לאת,Herev Le'Et,Sharon,Sharon / Shephelah,32.40104,34.91977
חרות,Herut,Sharon,Sharon / Shephelah,32.23922,34.91625
חיבת ציון,Hibat Zion,Sharon,Sharon / Shephelah,32.39754,34.91352
הוד השרון,Hod HaSharon,Sharon,Sharon / Shephelah,32.14946,34.88537
חופית,Hofit,Sharon,Sharon / Shephelah,32.38577,34.87824
חגלה,Hogla,Sharon,Sharon / Shephelah,32.38669,34.92553
חורשים,Horashim,Sharon,Sharon / Shephelah,32.13806,34.97051
ג'לג'וליה,Jaljulia,Sharon,Sharon / Shephelah,32.15055,34.95111
כפר ברא,Kafr Bara,Sharon,Sharon / Shephelah,32.13272,34.97229
כפר מל'ל,Kafr Misr,Sharon,Sharon / Shephelah,32.16765,34.89437
כפר עבודה,Kfar Avoda,Sharon,Sharon / Shephelah,32.25755,34.94123
כפר הרא'ה,Kfar HaRoeh,Sharon,Sharon / Shephelah,32.38967,34.91089
כפר חיים,Kfar Haim,Sharon,Sharon / Shephelah,32.35432,34.89915
כפר הס,Kfar Hess,Sharon,Sharon / Shephelah,32.24673,34.93564
כפר קאסם,Kfar Kassem,Sharon,Sharon / Shephelah,32.1179,34.96699
כפר מונש,Kfar Monash,Sharon,Sharon / Shephelah,32.34752,34.91782
כפר נטר,Kfar Netter,Sharon,Sharon / Shephelah,32.27615,34.87228
כפר סבא,Kfar Saba,Sharon,Sharon / Shephelah,32.17994,34.92269
כפר ויתקין,Kfar Vitkin,Sharon,Sharon / Shephelah,32.38345,34.88256
כפר ידידיה,Kfar Yedidia,Sharon,Sharon / Shephelah,32.34513,34.89994
כפר יונה,Kfar Yona,Sharon,Sharon / Shephelah,32.31474,34.93739
אזור תעשייה כפר יונה,Kfar Yona Industrial Zone,Sharon,Sharon / Shephelah,32.31918,34.91034
כוכב יאיר - צור יגאל,Kokhav Ya'ir - Tzur Yigal,Sharon,Sharon / Shephelah,32.22092,34.9942
מעברות,Ma'abarot,Sharon,Sharon / Shephelah,32.36336,34.9048
מתן,Matan,Sharon,Sharon / Shephelah,32.15719,34.97513
מכמורת,Mikhmoret,Sharon,Sharon / Shephelah,32.40594,34.87321
משמר השרון,Mishmar HaSharon,Sharon,Sharon / Shephelah,32.35671,34.90416
משמרת,Mishmeret,Sharon,Sharon / Shephelah,32.22718,34.92184
בית עלמין מורשה,Morasha Cemetery,Sharon,Sharon / Shephelah,32.12069,34.85496
נתניה - מזרח,Netanya - East,Sharon,Sharon / Shephelah,32.30036,34.8728
נתניה - מערב,Netanya - West,Sharon,Sharon / Shephelah,32.31088,34.85431
נעורים,Neurim,Sharon,Sharon / Shephelah,32.37128,34.86158
נווה ימין,Neveh Yamin,Sharon,Sharon / Shephelah,32.17025,34.93828
נווה ירק,Neveh Yarak,Sharon,Sharon / Shephelah,32.13391,34.92493
ניר אליהו,Nir Eliyahu,Sharon,Sharon / Shephelah,32.19706,34.94865
נירית,Nirit,Sharon,Sharon / Shephelah,32.14664,34.98387
ניצני עוז,Nitzanei Oz,Sharon,Sharon / Shephelah,32.30517,35.00417
נורדיה,Nordia,Sharon,Sharon / Shephelah,32.31443,34.89698
עולש,Olesh,Sharon,Sharon / Shephelah,32.33322,34.98495
אורנית,Oranit,Sharon,Sharon / Shephelah,32.12886,34.99039
מסוף אורנית,Oranit Terminal,Sharon,Sharon / Shephelah,32.11811,34.99109
פרדסיה,Pardessiya,Sharon,Sharon / Shephelah,32.30793,34.9092
פורת,Porat,Sharon,Sharon / Shephelah,32.27704,34.94941
קדימה צורן,Qadima - Zoran,Sharon,Sharon / Shephelah,32.28318,34.91202
קלנסווה,Qalansawe,Sharon,Sharon / Shephelah,32.29101,34.97423
רעננה,Ra'anana,Sharon,Sharon / Shephelah,32.19051,34.86304
רמת הכובש,Ramat HaKovesh,Sharon,Sharon / Shephelah,32.21831,34.93831
רמות השבים,Ramot HaShavim,Sharon,Sharon / Shephelah,32.16776,34.88668
רשפון,Rishpon,Sharon,Sharon / Shephelah,32.20106,34.82349
תחנת רכבת ראש העין,Rosh Ha’Ayin Train Station,Sharon,Sharon / Shephelah,32.1204,34.93506
המרכז האקדמי רופין,Ruppin Academic Center,Sharon,Sharon / Shephelah,32.34206,34.91219
סלעית,Salit,Sharon,Sharon / Shephelah,32.24441,35.04756
שדה ורבורג,Sdeh Warburg,Sharon,Sharon / Shephelah,32.20624,34.90734
שדי חמד,Sdei Hemed,Sharon,Sharon / Shephelah,32.15952,34.94357
שער אפרים,Sha'ar Efraim,Sharon,Sharon / Shephelah,32.28921,34.99847
שערי תקווה,Sha'arei Tikva,Sharon,Sharon / Shephelah,32.12309,35.02886
שפיים,Shefayim,Sharon,Sharon / Shephelah,32.21778,34.82467
שושנת העמקים,Shoshanat Ha'Amakim,Sharon,Sharon / Shephelah,32.35419,34.85704
מרכז אזורי דרום השרון,Southern Sharon Regional Center,Sharon,Sharon / Shephelah,32.13362,34.91207
טייבה,Tayibe,Sharon,Sharon / Shephelah,32.26352,35.00606
תל יצחק,Tel Itzhak,Sharon,Sharon / Shephelah,32.25137,34.87378
תל מונד,Tel Mond,Sharon,Sharon / Shephelah,32.25359,34.91779
טירה,Tira,Sharon,Sharon / Shephelah,32.23433,34.95798
תנובות,Tnuvot,Sharon,Sharon / Shephelah,32.30717,34.9634
צופית,Tzofit,Sharon,Sharon / Shephelah,32.19269,34.92173
צור יצחק,Tzur Itzhak,Sharon,Sharon / Shephelah,32.24074,34.99789
צור משה,Tzur Moshe,Sharon,Sharon / Shephelah,32.29664,34.91441
צור נתן,Tzur Natan,Sharon,Sharon / Shephelah,32.2413,35.01116
אודים,Udim,Sharon,Sharon / Shephelah,32.26466,34.84463
מכון וינגייט,Wingate Institute,Sharon,Sharon / Shephelah,32.26012,34.83322
יד חנה,Yad Hana,Sharon,Sharon / Shephelah,32.32592,35.0058
ירחיב,Yafhiv,Sharon,Sharon / Shephelah,32.15361,34.96838
יקום,Yakum,Sharon,Sharon / Shephelah,32.24844,34.84096
ינוב,Yanuv,Sharon,Sharon / Shephelah,32.30722,34.94849
ירקונה,Yarkona,Sharon,Sharon / Shephelah,32.14512,34.8985
"יעבץ, יעף","Yavetz, Ye'af",Sharon,Sharon / Shephelah,32.27305,34.96594
זמר,Zemer,Sharon,Sharon / Shephelah,32.36234,35.03429
צופים,Zufim,Sharon,Sharon / Shephelah,32.19862,35.01005
אשקלון - צפון,Ashkelon - North,West Lachish,Sharon / Shephelah,31.69206,34.58917
אשקלון - דרום,Ashkelon - South,West Lachish,Sharon / Shephelah,31.66262,34.56837
אזור תעשייה צפוני אשקלון,Ashkelon Northern Industrial Zone,West Lachish,Sharon / Shephelah,31.66919,34.60095
אזור תעשייה הדרומי אשקלון,Ashkelon Southern Industrial Zone,West Lachish,Sharon / Shephelah,31.63324,34.54133
בת הדר,Bat Hadar,West Lachish,Sharon / Shephelah,31.64588,34.59547
באר גנים,Be'er Ganim,West Lachish,Sharon / Shephelah,31.69941,34.60738
בית שקמה,Beit Shikma,West Lachish,Sharon / Shephelah,31.63787,34.61124
ברכיה,Berekhya,West Lachish,Sharon / Shephelah,31.67076,34.62609
גיאה,Ge'a,West Lachish,Sharon / Shephelah,31.62736,34.6065
חלץ,Heletz,West Lachish,Sharon / Shephelah,31.57746,34.65709
הודיה,Hodaya,West Lachish,Sharon / Shephelah,31.67165,34.63744
כפר סילבר,Kfar Silver,West Lachish,Sharon / Shephelah,31.67328,34.61191
כוכב מיכאל,Kokhav Michael,West Lachish,Sharon / Shephelah,31.62916,34.67032
מבקיעים,Mavki'im,West Lachish,Sharon / Shephelah,31.62327,34.57708
משען,Mishan,West Lachish,Sharon / Shephelah,31.65736,34.6242
ניר ישראל,Nir Israel,West Lachish,Sharon / Shephelah,31.68815,34.63756
ניצן,Nitzan,West Lachish,Sharon / Shephelah,31.73839,34.6343
ניצנים,Nitzanim,West Lachish,Sharon / Shephelah,31.71648,34.63449
תלמי יפה,Talmei Yaffe,West Lachish,Sharon / Shephelah,31.61565,34.61275
פארק אריאל שרון,Ariel Sharon Park,Dan,Tel Aviv / Gush Dan,32.03158,34.81607
אזור,Azor,Dan,Tel Aviv / Gush Dan,32.02304,34.8088
בת ים,Bat-Yam,Dan,Tel Aviv / Gush Dan,32.01465,34.74938
בני ברק,Bnei Brak,Dan,Tel Aviv / Gush Dan,32.08874,34.83419
גני תקווה,Ganei Tikva,Dan,Tel Aviv / Gush Dan,32.06307,34.87524
גת רימון,Gat Rimon,Dan,Tel Aviv / Gush Dan,32.06815,34.88327
מתחם פי גלילות,Gelilot - Pi Compound,Dan,Tel Aviv / Gush Dan,32.13647,34.80371
גבעת השלושה,Givat HaShlosha,Dan,Tel Aviv / Gush Dan,32.09765,34.92024
גבעת שמואל,Givat Shmuel,Dan,Tel Aviv / Gush Dan,32.07754,34.8523
גבעתיים,Givatayim,Dan,Tel Aviv / Gush Dan,32.07012,34.80996
מתחם גלילות,Glilot Complex,Dan,Tel Aviv / Gush Dan,32.15053,34.80869
הרצליה - מרכז וגליל ים,Herzeliya - Center And Glil Yam,Dan,Tel Aviv / Gush Dan,32.16783,34.84217
הרצליה - מערב,Herzliya - West,Dan,Tel Aviv / Gush Dan,32.17805,34.8106
חולון,Holon,Dan,Tel Aviv / Gush Dan,32.01472,34.78648
בחלק מהאזורים בארץ,In Certain Areas of The Country,Dan,Tel Aviv / Gush Dan,31.046051,34.851612
כפר שמריהו,Kfar Shmaryahu,Dan,Tel Aviv / Gush Dan,32.18597,34.82039
כפר סירקין,Kfar Sirkin,Dan,Tel Aviv / Gush Dan,32.07646,34.92498
קריית אונו,Kiryat Ono,Dan,Tel Aviv / Gush Dan,32.052,34.86065
מעש,Maas,Dan,Tel Aviv / Gush Dan,32.06392,34.88827
מגשימים,Magshimim,Dan,Tel Aviv / Gush Dan,32.04692,34.89818
מקווה ישראל,Mikveh Israel,Dan,Tel Aviv / Gush Dan,32.02992,34.78373
אור יהודה,Or Yehuda,Dan,Tel Aviv / Gush Dan,32.0292,34.84842
פתח תקווה,Petach Tikva,Dan,Tel Aviv / Gush Dan,32.09429,34.87803
רמת גן - מזרח,Ramat Gan - East,Dan,Tel Aviv / Gush Dan,32.04929,34.84252
רמת גן - מערב,Ramat Gan - West,Dan,Tel Aviv / Gush Dan,32.07144,34.82638
רמת השרון,Ramat HaSharon,Dan,Tel Aviv / Gush Dan,32.13952,34.83366
סביון,Savyon,Dan,Tel Aviv / Gush Dan,32.04693,34.87941
תל אביב - עבר הירקון,Tel Aviv - Across The Yarkon,Dan,Tel Aviv / Gush Dan,32.12143,34.81696
תל אביב - מרכז העיר,Tel Aviv - City Center,Dan,Tel Aviv / Gush Dan,32.07988,34.78162
תל אביב - מזרח,Tel Aviv - East,Dan,Tel Aviv / Gush Dan,32.05739,34.79861
תל אביב - דרום העיר ויפו,Tel Aviv - South And Jaffa,Dan,Tel Aviv / Gush Dan,32.04628,34.76562
יהוד מונוסון,Yehud - Monoson,Dan,Tel Aviv / Gush Dan,32.03223,34.88786
אזור תעשייה אפק ולב הארץ,"Afek And Lev Ha""aretz Industrial Zone",Yarkon,Tel Aviv / Gush Dan,32.10878,34.95365
איירפורט סיטי,Airport City,Yarkon,Tel Aviv / Gush Dan,31.98874,34.91233
ברקת,Bareket,Yarkon,Tel Aviv / Gush Dan,32.0158,34.94621
בארות יצחק,Be'erot Itzhak,Yarkon,Tel Aviv / Gush Dan,32.04175,34.91019
בית עריף,Beit Arif,Yarkon,Tel Aviv / Gush Dan,31.99539,34.93586
בית נחמיה,Beit Nechemia,Yarkon,Tel Aviv / Gush Dan,31.97532,34.9549
בני עטרות,Bnei Atarot,Yarkon,Tel Aviv / Gush Dan,32.02374,34.91124
עינת,Einat,Yarkon,Tel Aviv / Gush Dan,32.08423,34.93919
אלעד,Elad,Yarkon,Tel Aviv / Gush Dan,32.05107,34.95639
גמזו,Gimzo,Yarkon,Tel Aviv / Gush Dan,31.92944,34.93978
גבעת כ'ח,Giv'at Ko'ah,Yarkon,Tel Aviv / Gush Dan,32.03094,34.93664
חדיד,Hadid,Yarkon,Tel Aviv / Gush Dan,31.96816,34.93385
חשמונאים,Hashmonaim,Yarkon,Tel Aviv / Gush Dan,31.93056,35.01827
אזור תעשייה חבל מודיעין שוהם,Hevel Modiin Shoham Industrial Zone,Yarkon,Tel Aviv / Gush Dan,32.01334,34.96004
כפר דניאל,Kfar Daniel,Yarkon,Tel Aviv / Gush Dan,31.93324,34.93232
כפר האורנים,Kfar HaOranim,Yarkon,Tel Aviv / Gush Dan,31.91909,35.03889
כפר רות,Kfar Rut,Yarkon,Tel Aviv / Gush Dan,31.90732,35.03297
כפר טרומן,Kfar Truman,Yarkon,Tel Aviv / Gush Dan,31.97961,34.9236
לפיד,Lapid,Yarkon,Tel Aviv / Gush Dan,31.91717,35.03172
מתתיהו,Matityahu,Yarkon,Tel Aviv / Gush Dan,31.93002,35.03132
מזור,Mazor,Yarkon,Tel Aviv / Gush Dan,32.0525,34.92578
מבוא חורון,Mevo Horon,Yarkon,Tel Aviv / Gush Dan,31.84827,35.03724
מבוא מודיעים,Mevo Modi'im,Yarkon,Tel Aviv / Gush Dan,31.93446,34.98688
מודיעין - ישפרו סנטר,Modi'in - Ishpro Center,Yarkon,Tel Aviv / Gush Dan,31.88775,34.96478
מודיעין - ליגד סנטר,Modi'in - Ligad Center,Yarkon,Tel Aviv / Gush Dan,31.91921,34.97343
מודיעין עילית,Modi'in Illit,Yarkon,Tel Aviv / Gush Dan,31.93076,35.04495
מודיעין מכבים רעות,Modi'in Maccabim Re'ut,Yarkon,Tel Aviv / Gush Dan,31.90105,35.00153
נחשונים,Nachshonim,Yarkon,Tel Aviv / Gush Dan,32.06136,34.94911
נחלים,Nechalim,Yarkon,Tel Aviv / Gush Dan,32.05759,34.91259
נאות קדומים,Neot Kedumim,Yarkon,Tel Aviv / Gush Dan,31.94799,34.97285
"נוף איילון, שעלבים","Nof Ayalon, Sha'alvim",Yarkon,Tel Aviv / Gush Dan,31.8702,34.98568
נופך,Nofech,Yarkon,Tel Aviv / Gush Dan,32.04297,34.92045
רינתיה,Rinatya,Yarkon,Tel Aviv / Gush Dan,32.04508,34.92791
ראש העין,Rosh HaAyin,Yarkon,Tel Aviv / Gush Dan,32.0938,34.96204
שילת,Shilat,Yarkon,Tel Aviv / Gush Dan,31.91812,35.0191
שוהם,Shoham,Yarkon,Tel Aviv / Gush Dan,31.99715,34.94692
טירת יהודה,Tirat Yehuda,Yarkon,Tel Aviv / Gush Dan,32.01312,34.9333
אדורה,Adora,Judea,West Bank,31.55103,35.01582
אדורים,Adoraim,Judea,West Bank,31.48581,35.04325
עלמון,Almon,Judea,West Bank,31.82809,35.29385
אלון,Alon,Judea,West Bank,31.83059,35.35624
אלון שבות,Alon Shvut,Judea,West Bank,31.65421,35.12629
עשהאל,Asa'el,Judea,West Bank,31.37354,35.04375
בת עין,Bat Ayin,Judea,West Bank,31.65914,35.09696
"בית חג""י",Beit Hagai,Judea,West Bank,31.49057,35.07879
בית יתיר,Beit Yatir,Judea,West Bank,31.3644,35.11184
ביתר עילית,Beitar Illit,Judea,West Bank,31.70135,35.11622
בני דקלים,Bnei Dkalim,Judea,West Bank,31.51804,34.91824
כרמל,Carmel,Judea,West Bank,31.4269,35.1844
אפרת,Efrat,Judea,West Bank,31.66579,35.15914
אלעזר,Elazar,Judea,West Bank,31.6627,35.13964
אליאב,Eliav,Judea,West Bank,31.52953,34.93119
צומת הגוש,Gush Etzion Junction,Judea,West Bank,31.64639,35.1306
גבעות,Gvaot,Judea,West Bank,31.67925,35.10181
הר עמשא,Har Amsha,Judea,West Bank,31.34285,35.10045
הר גילה,Har Gilo,Judea,West Bank,31.72256,35.16859
היישוב היהודי חברון,Hevron Jewish Settlement,Judea,West Bank,31.52474,35.10737
כרמי קטיף ואמציה,Karmei Katif And Amatzia,Judea,West Bank,31.5349,34.91282
כרמי צור,Karmei Tzur,Judea,West Bank,31.60852,35.09991
קדר,Kedar,Judea,West Bank,31.75413,35.30981
כפר אדומים,Kfar Edomim,Judea,West Bank,31.82221,35.34087
כפר אלדד,Kfar Eldad,Judea,West Bank,31.64933,35.25349
כפר עציון,Kfar Etzion,Judea,West Bank,31.64878,35.11522
קרית ארבע,Kiryat Arba,Judea,West Bank,31.53413,35.12365
מעלה חבר,Ma'ale Hever,Judea,West Bank,31.48512,35.16628
מעלה רחבעם,Ma'ale Rekhav'am,Judea,West Bank,31.65009,35.25913
מעלה עמוס,Ma'aleh Amos,Judea,West Bank,31.5982,35.22838
מעלה אדומים,Ma'aleh Edomim,Judea,West Bank,31.78637,35.31231
מעון,Ma'on,Judea,West Bank,31.40772,35.16217
מיצד,Metzad,Judea,West Bank,31.58503,35.18685
מגדל עוז,Migdal Oz,Judea,West Bank,31.64248,35.14557
מצפה יריחו,Mitzpeh Yericho,Judea,West Bank,31.81861,35.39419
נגוהות,Negohot,Judea,West Bank,31.49616,34.97225
נטע,Neta,Judea,West Bank,31.47639,34.92664
נווה דניאל,Neveh Daniel,Judea,West Bank,31.67841,35.14291
נופי פרת,Nofei Prat,Judea,West Bank,31.82244,35.31954
נוקדים,Nokdim,Judea,West Bank,31.64593,35.24685
עתניאל,Otniel,Judea,West Bank,31.44022,35.02984
פני קדם,Pnei Kedem,Judea,West Bank,31.58618,35.19782
ראש צורים,Rosh Tzurim,Judea,West Bank,31.66862,35.12649
שדה בר,Sdeh Bar,Judea,West Bank,31.6595,35.24402
שקף,Shekef,Judea,West Bank,31.51122,34.93677
שני ליבנה,Sheni LeYavne,Judea,West Bank,31.35556,35.0694
שמעה,Shim'a,Judea,West Bank,31.38799,35.0121
שומריה,Shomria,Judea,West Bank,31.43132,34.88348
סוסיא,Susya,Judea,West Bank,31.39128,35.1132
תלם,Telem,Judea,West Bank,31.56513,35.02951
טנא עומרים,Teneh Omarim,Judea,West Bank,31.37493,34.95672
תקוע,Tko'a,Judea,West Bank,31.6493,35.22896
אבו גוש,Abu Gosh,Judea Foothills,West Bank,31.80686,35.11038
אדרת,Aderet,Judea Foothills,West Bank,31.66034,34.99438
עגור,Agur,Judea Foothills,West Bank,31.69699,34.91221
אביעזר,Aviezer,Judea Foothills,West Bank,31.68141,35.01515
בר גיורא,Bar Giora,Judea Foothills,West Bank,31.73068,35.07119
בית גוברין,Beit Guvrin,Judea Foothills,West Bank,31.61198,34.89442
בית מאיר,Beit Meir,Judea Foothills,West Bank,31.79421,35.03737
בית נקופה,Beit Nekofa,Judea Foothills,West Bank,31.80377,35.1267
בית ניר,Beit Nir,Judea Foothills,West Bank,31.64838,34.87347
בית שמש,Beit Shemesh,Judea Foothills,West Bank,31.72752,34.99042
בקוע,Beko'a,Judea Foothills,West Bank,31.82881,34.92444
אזור תעשייה ברוש,Brosh Industrial Zone,Judea Foothills,West Bank,31.73547,34.95497
עין נקובא,Ein Naqquba,Judea Foothills,West Bank,31.79487,35.12043
עין ראפה,Ein Rafa,Judea Foothills,West Bank,31.79038,35.11472
אשתאול,Eshtaol,Judea Foothills,West Bank,31.78141,35.00849
גלאון,Galon,Judea Foothills,West Bank,31.63264,34.84765
גפן,Geffen,Judea Foothills,West Bank,31.74119,34.87853
גבעות עדן,Giv'ot Eden,Judea Foothills,West Bank,31.66284,35.01447
גבעת ישעיהו,Givat Ishayahu,Judea Foothills,West Bank,31.67083,34.94669
גבעת יערים,Givat Yearim,Judea Foothills,West Bank,31.78723,35.08847
גיזו,Gizo,Judea Foothills,West Bank,31.80457,34.93842
הר אדר,Har Adar,Judea Foothills,West Bank,31.82652,35.12986
אזור תעשייה הר טוב - צרעה,Har Tuv - Tzora Industrial Zone,Judea Foothills,West Bank,31.76792,34.99138
הראל,Harel,Judea Foothills,West Bank,31.8101,34.95166
כפר מנחם,Kfar Menachem,Judea Foothills,West Bank,31.73306,34.83562
כפר אוריה,Kfar Uriah,Judea Foothills,West Bank,31.79286,34.94699
כפר זוהרים,Kfar Zoharim,Judea Foothills,West Bank,31.62149,34.92467
קריית ענבים,Kiryat Anavim,Judea Foothills,West Bank,31.80927,35.119
כפר הנוער קריית יערים,Kiryat Ye'arim Youth Village,Judea Foothills,West Bank,31.81273,35.10498
קריית יערים,Kiryat Yearim,Judea Foothills,West Bank,31.80407,35.10322
כסלון,Ksalon,Judea Foothills,West Bank,31.77402,35.04877
לטרון,Latrun,Judea Foothills,West Bank,31.83819,34.97992
לוזית,Luzit,Judea Foothills,West Bank,31.68683,34.88672
מעלה החמישה,Ma'aleh HaHamisha,Judea Foothills,West Bank,31.81794,35.11009
מחסיה,Mahsiya,Judea Foothills,West Bank,31.74634,35.00817
מטע,Mata,Judea Foothills,West Bank,31.71747,35.06043
מסילת ציון,Mesillat Zion,Judea Foothills,West Bank,31.80267,35.01146
מבוא ביתר,Mevo Beitar,Judea Foothills,West Bank,31.72292,35.1064
מיני ישראל - נחשון,Mini Israel - Nachshon,Judea Foothills,West Bank,31.84253,34.96858
נחשון,Nachshon,Judea Foothills,West Bank,31.83141,34.95636
נחם,Naham,Judea Foothills,West Bank,31.76723,35.00378
נטף,Nataf,Judea Foothills,West Bank,31.83306,35.06787
נחושה,Nehusha,Judea Foothills,West Bank,31.62931,34.95335
נס הרים,Ness Harim,Judea Foothills,West Bank,31.74384,35.05674
נתיב הל'ה,Netiv HaLamed-Heh,Judea Foothills,West Bank,31.68886,34.98123
נווה אילן,Neveh Ilan,Judea Foothills,West Bank,31.80856,35.07898
נווה מיכאל - רוגלית,Neveh Michael (Rogalit),Judea Foothills,West Bank,31.67331,35.00684
נווה שלום,Neveh Shalom,Judea Foothills,West Bank,31.81842,34.97825
רמת רזיאל,Ramat Raziel,Judea Foothills,West Bank,31.77407,35.07297
רטורנו - גבעת שמש,Retorno - Givat Shesh,Judea Foothills,West Bank,31.7759,34.94793
שדות מיכה,Sdot Micha,Judea Foothills,West Bank,31.72134,34.92113
שואבה,Shoeva,Judea Foothills,West Bank,31.79849,35.07775
שורש,Shoresh,Judea Foothills,West Bank,31.79657,35.06552
שריגים - לי-און,Srigim-Li On,Judea Foothills,West Bank,31.67665,34.93533
טל שחר,Tal Shachar,Judea Foothills,West Bank,31.80487,34.90105
תעוז,Taoz,Judea Foothills,West Bank,31.80056,34.97365
תרום,Tarom,Judea Foothills,West Bank,31.78298,34.98222
תירוש,Tirosh,Judea Foothills,West Bank,31.7507,34.88478
צפרירים,Tzafririm,Judea Foothills,West Bank,31.65975,34.9437
צלפון,Tzalfon,Judea Foothills,West Bank,31.80502,34.93228
צרעה,Tzora,Judea Foothills,West Bank,31.76097,34.9706
צובה,Tzuba,Judea Foothills,West Bank,31.78336,35.11997
צור הדסה,Tzur Hadassa,Judea Foothills,West Bank,31.71606,35.0975
יד השמונה,Yad HaShmona,Judea Foothills,West Bank,31.8077,35.08991
ישעי,Yish'i,Judea Foothills,West Bank,31.75107,34.96471
זנוח,Zanoah,Judea Foothills,West Bank,31.73212,35.00088
זכריה,Zekharia,Judea Foothills,West Bank,31.7102,34.94429
אחיה,Achita,Shomron,West Bank,32.06156,35.32727
עדי עד,Adei Ad,Shomron,West Bank,32.04061,35.33629
אעירה השחר,Aira Shachar,Shomron,West Bank,31.95027,35.36899
עלי זהב - לשם,Alei Zahav - Leshem,Shomron,West Bank,32.07015,35.05328
עמיחי,Amichai,Shomron,West Bank,32.04454,35.32689
אריאל,Ariel,Shomron,West Bank,32.10347,35.18797
אזור תעשייה אריאל,Ariel Industrial Park,Shomron,West Bank,32.09407,35.12347
עטרת,Atteret,Shomron,West Bank,32.00049,35.17599
אבני חפץ,Avnei Hefetz,Shomron,West Bank,32.28701,35.0766
אזור תעשייה בראון,Bar On Industrial Zone,Shomron,West Bank,32.24738,35.16862
ברקן,Barkan,Shomron,West Bank,32.11005,35.1069
אזור תעשייה ברקן,Barkan Industrial Park,Shomron,West Bank,32.1052,35.11999
בית אריה,Beit Arie,Shomron,West Bank,32.03709,35.05007
בית אל,Beit El,Shomron,West Bank,31.94054,35.22192
בית חורון,Beit Horon,Shomron,West Bank,31.87662,35.1277
ברוכין,Brukhin,Shomron,West Bank,32.08134,35.09179
דולב,Dolev,Shomron,West Bank,31.92646,35.13391
דורות עילית,Dorot Illit,Shomron,West Bank,32.137,35.06243
ענב,Einav,Shomron,West Bank,32.28674,35.12827
עלי,Eli,Shomron,West Bank,32.07522,35.27543
מכינת אלישע,Elisha Preparatory,Shomron,West Bank,32.0111,35.13844
אלון מורה,Elon Moreh,Shomron,West Bank,32.23243,35.33612
אביתר,Evyatar,Shomron,West Bank,32.11976,35.27673
גבע בנימין,Geva Binyamin,Shomron,West Bank,31.84909,35.28053
גבעת אסף,Giv'at Asaf,Shomron,West Bank,31.90961,35.24935
גבעת הרואה,Givat Ha-Roe,Shomron,West Bank,32.05407,35.26277
גבעת הראל,Givat Harel,Shomron,West Bank,32.05937,35.27387
גבעת פורת יוסף,Givat Porat Yosef,Shomron,West Bank,32.21377,35.37005
גופנה,Gofna,Shomron,West Bank,31.97946,35.12591
הר ברכה,Har Bracha,Shomron,West Bank,32.18605,35.26452
חוות אביה,Havat Avia,Shomron,West Bank,32.45451,35.11124
חוות אביחי,Havat Avihai,Shomron,West Bank,32.04604,35.03638
חוות בניהו,Havat Bnayahu,Shomron,West Bank,31.85717,35.29769
חוות אל נווה,Havat El Naveh,Shomron,West Bank,32.43827,35.11377
חוות אלחי,Havat Elchai,Shomron,West Bank,32.2761,35.15592
חוות גלעד,Havat Gil'ad,Shomron,West Bank,32.19657,35.18153
חוות נחל שילה,Havat Hanal Shilo,Shomron,West Bank,32.04812,35.28196
חוות חנינא,Havat Hanina,Shomron,West Bank,31.89543,35.30613
חוות מעלה אהוביה,Havat Ma'ale Ahuvia,Shomron,West Bank,31.94948,35.3363
חוות מגנזי,Havat Maginzi,Shomron,West Bank,31.96123,35.03496
חוות מלכיאל,Havat Malkiel,Shomron,West Bank,31.90851,35.37145
חוות מרום שמואל,Havat Marom Shmuel,Shomron,West Bank,32.20541,35.39278
חוות מגדלים,Havat Megadlim,Shomron,West Bank,32.09442,35.35247
חוות נחלת צבי,Havat Nahalat Tzvi,Shomron,West Bank,31.87105,35.2987
חוות נווה צוף,Havat Neve Zuf,Shomron,West Bank,32.00702,35.14587
"חוות נוף אב""י",Havat Nof Avi,Shomron,West Bank,32.09098,35.15038
חוות עולם חסד,Havat Olam Hesed,Shomron,West Bank,32.00419,35.03319
חוות ראש תאנה,Havat Rosh Teena,Shomron,West Bank,32.00444,35.37126
חוות שדה,Havat Sade,Shomron,West Bank,32.18857,35.31043
חוות שחרית,Havat Shaharit,Shomron,West Bank,32.08916,35.0751
חוות שוביאל,Havat Shuviel,Shomron,West Bank,32.07886,35.13583
חוות יאיר,Havat Yair,Shomron,West Bank,32.14351,35.10656
חוות ינון,Havat Yenon,Shomron,West Bank,31.85655,35.31487
חוות צרידה,Havat Zrida,Shomron,West Bank,32.05591,35.06091
חרמש,Hermesh,Shomron,West Bank,32.42334,35.11866
חרמש דרום,Hermesh South,Shomron,West Bank,32.41624,35.12166
חיננית,Hinanit,Shomron,West Bank,32.48021,35.17193
חומש,Homesh,Shomron,West Bank,32.31007,35.1931
חרשה,Horasha,Shomron,West Bank,31.94425,35.13754
עמנואל,Immanuel,Shomron,West Bank,32.16616,35.14968
איתמר,Itamar,Shomron,West Bank,32.15904,35.34944
יצהר,Itzhar,Shomron,West Bank,32.16484,35.24482
קרני שומרון,Karnei Shomron,Shomron,West Bank,32.16675,35.08394
קדומים,Kdumim,Shomron,West Bank,32.22099,35.1627
כרם רעים,Kerem Reim,Shomron,West Bank,31.95877,35.13883
כפר תפוח,Kfar Tapuach,Shomron,West Bank,32.11844,35.23875
קידה,Kida,Shomron,West Bank,32.04973,35.33975
קריית נטפים,Kiryat Netafim,Shomron,West Bank,32.11667,35.11294
כוכב השחר,Kokhav HaShahar,Shomron,West Bank,31.95683,35.34592
כוכב יעקב,Kokhav Ya'akov,Shomron,West Bank,31.88039,35.24593
מעלה לבונה,Ma'aleh Levona,Shomron,West Bank,32.05487,35.24048
מעלה מכמש,Ma'aleh Michmash,Shomron,West Bank,31.87968,35.30539
מלאכי השלום,Malachei HaShalom,Shomron,West Bank,32.02681,35.36269
מגדלים,Megadlim,Shomron,West Bank,32.09065,35.34276
מבוא דותן,Mevo Dotan,Shomron,West Bank,32.42254,35.1729
מגרון,Migron,Shomron,West Bank,31.87473,35.25892
מצפה דני,Mitzpe Danny,Shomron,West Bank,31.88015,35.31469
נעלה,Na'aleh,Shomron,West Bank,31.96304,35.06452
נחליאל,Nachliel,Shomron,West Bank,31.97381,35.1403
נריה,Neria,Shomron,West Bank,31.95328,35.12741
נווה ארז,Neveh Erez,Shomron,West Bank,31.86494,35.31124
נווה צוף,Neveh Tzuf,Shomron,West Bank,32.00756,35.12656
נילי,Nili,Shomron,West Bank,31.96231,35.04582
נופי נחמיה,Nofei Nehemiah,Shomron,West Bank,32.09793,35.23905
נופים,Nofim,Shomron,West Bank,32.15406,35.10184
עופרים,Ofarim,Shomron,West Bank,32.01889,35.04395
עפרה,Ofra,Shomron,West Bank,31.9532,35.2621
פדואל,Paduel,Shomron,West Bank,32.06184,35.05187
פסגות,Psagot,Shomron,West Bank,31.89841,35.22606
רמת מגרון,Ramat Migron,Shomron,West Bank,31.88638,35.27028
רחלים,Rechelim,Shomron,West Bank,32.10197,35.25619
ריחן,Reihan,Shomron,West Bank,32.46828,35.13703
רבבה,Revava,Shomron,West Bank,32.11955,35.12791
רימונים,Rimonim,Shomron,West Bank,31.92233,35.33498
שדה אפרים,Sde Efrayim,Shomron,West Bank,31.94018,35.0924
אזור תעשייה שער בנימין,Sha'ar Binyamin Industrial Zone,Shomron,West Bank,31.86621,35.26201
אזור תעשייה שחק,Shahak Industrial Park,Shomron,West Bank,32.47507,35.17976
שקד,Shaked,Shomron,West Bank,32.47432,35.16831
שבי שומרון,Shavei Shomron,Shomron,West Bank,32.26414,35.18422
שילה,Shilo,Shomron,West Bank,32.05049,35.29825
שבות רחל,Shvut Rachel,Shomron,West Bank,32.05475,35.31282
טל מנשה,Tal Menashe,Shomron,West Bank,32.4833,35.16108
טלמון,Talmon,Shomron,West Bank,31.93838,35.1385
תל ציון,Tel Zion,Shomron,West Bank,31.88057,35.23697
יקיר,Yakir,Shomron,West Bank,32.14902,35.11369
יבוא דודי,Yevo Dodi,Shomron,West Bank,31.96748,35.14622
החווה של זוהר,Zohar's Farm,Shomron,West Bank,31.91712,35.38277
אפקה,Afeka,Yehuda,West Bank,31.46805,35.03779
סוסיא הקדומה,Ancient Susya,Yehuda,West Bank,31.40597,35.10313
אביגיל,Avigail,Yehuda,West Bank,31.40263,35.14131
בר כוכבא,Bar Kokhba,Yehuda,West Bank,31.71342,35.15915
בית הברכה,Beit HaBracha,Yehuda,West Bank,31.63162,35.13165
בני אדם,Beni Adam,Yehuda,West Bank,31.84437,35.30527
אשתמוע,Eshtemoa,Yehuda,West Bank,31.39297,35.01516
חוות דרומא,Havat Daroma,Yehuda,West Bank,31.39688,35.14585
חוות ארץ האיילים,Havat Eretzh Ha'Ayalim,Yehuda,West Bank,31.66494,35.11257
חוות אשכולות,Havat Eshkolot,Yehuda,West Bank,31.42164,34.91512
חוות הרועה העברי,Havat Haroe Haivri,Yehuda,West Bank,31.81253,35.3221
חוות קשואלה,Havat Kashuala,Yehuda,West Bank,31.6756,35.10224
חוות מלאכי אברהם,Havat Malchei Avraham,Yehuda,West Bank,31.48238,35.17626
חוות מדבר חבר,Havat Midbar Haver,Yehuda,West Bank,31.47111,35.17803
חוות מקנה יהודה,Havat Mikne Yehuda,Yehuda,West Bank,31.36257,35.03708
חוות מור ואברהם,Havat Mor Ve'Avraham,Yehuda,West Bank,31.36954,34.96823
חוות נחלת אבות,Havat Nahlat Avot,Yehuda,West Bank,31.57717,35.19697
חוות טליה,Havat Taliya,Yehuda,West Bank,31.36771,35.12496
חוות תלם צפון,Havat Telem North,Yehuda,West Bank,31.57065,35.03719
חוות טואמין,Havat Toamin,Yehuda,West Bank,31.37616,35.12396
חוות צאן קדר,Havat Tzon Kedar,Yehuda,West Bank,31.73625,35.32004
חוות יויו,Havat Yoyo,Yehuda,West Bank,31.3869,35.15383
איבי הנחל,Ibei HaNahal,Yehuda,West Bank,31.60302,35.21846
פארק תעשיות מגדל עוז,Industrial Park Migdal Oz,Yehuda,West Bank,31.64106,35.15154
קדר דרום,Kedar South,Yehuda,West Bank,31.74618,35.30164
אזור תעשייה מיתרים,Meitarim Industrial Zone,Yehuda,West Bank,31.36903,35.00477
אזור תעשייה מישור אדומים,Mishor Edomim Industrial Zone,Yehuda,West Bank,31.79502,35.33715
מצפה חגית,Mitzpe Hagit,Yehuda,West Bank,31.85147,35.33746
מצפה יאיר,Mitzpe Yair,Yehuda,West Bank,31.38295,35.13556
"מצפה זי""ו",Mitzpe ZIV,Yehuda,West Bank,31.48391,35.14486
עוז וגאון,Oz Ve'Gaon,Yehuda,West Bank,31.64281,35.13395
שדה בועז,Sde Boaz,Yehuda,West Bank,31.69158,35.14452
תקוע ד' וה',Tekoa Dalet And Hei,Yehuda,West Bank,31.63356,35.24519
הגבעה הצהובה,The Yellow Hill,Yehuda,West Bank,31.65815,35.11933
